[{
  "zone": "Guadalajara",
  "station_id": "2",
  "name": "(GDL-001) C. Epigmenio Glez./ Av. 16 de Sept.",
  "latitude": "20.666378",
  "longitude": "-103.34882",
  "address": "(GDL-001) C. Epigmenio González / Av. 16 de Septiembre *",
  "neighborhood": "Mexicaltzingo",
  "postal_code": "44180",
  "capacity": "15",
  "bikes_available": "3",
  "bikes_unavailable": "0",
  "docks_available": "12",
  "docks_unavailable": "0"
 },
 {
  "zone": "Guadalajara",
  "station_id": "3",
  "name": "(GDL-002) C. Colonias  / Av.  Niños héroes",
  "latitude": "20.667228",
  "longitude": "-103.366",
  "address": "(GDL-002) C. Colonias / Av.  Niños Héroes",
  "neighborhood": "Americana",
  "postal_code": "44160",
  "capacity": "15",
  "bikes_available": "4",
  "bikes_unavailable": "1",
  "docks_available": "10",
  "docks_unavailable": "0"
 },
 {
  "zone": "Guadalajara",
  "station_id": "4",
  "name": "(GDL-003) C. Vidrio / Av. Chapultepec",
  "latitude": "20.66769",
  "longitude": "-103.368252",
  "address": "(GDL-003) C. Vidrio / Av. Chapultepec",
  "neighborhood": "Americana",
  "postal_code": "44160",
  "capacity": "19",
  "bikes_available": "0",
  "bikes_unavailable": "1",
  "docks_available": "18",
  "docks_unavailable": "0"
 },
 {
  "zone": "Guadalajara",
  "station_id": "5",
  "name": "(GDL-004) C. Ghilardi /C. Miraflores",
  "latitude": "20.69175",
  "longitude": "-103.36255",
  "address": "(GDL-004) C. Ghilardi / C. Miraflores *",
  "neighborhood": "Santa Teresita",
  "postal_code": "44600",
  "capacity": "11",
  "bikes_available": "8",
  "bikes_unavailable": "1",
  "docks_available": "2",
  "docks_unavailable": "0"
 },
 {
  "zone": "Guadalajara",
  "station_id": "6",
  "name": "(GDL-005) C. San Diego /Calzada Independencia",
  "latitude": "20.681151",
  "longitude": "-103.338863",
  "address": "(GDL-005) C. San Diego / Calz. Independencia *",
  "neighborhood": "El Retiro",
  "postal_code": "44280",
  "capacity": "11",
  "bikes_available": "11",
  "bikes_unavailable": "0",
  "docks_available": "0",
  "docks_unavailable": "0"
 },
 {
  "zone": "Guadalajara",
  "station_id": "8",
  "name": "(GDL-006) C. Venustiano Carranza /C. Reforma",
  "latitude": "20.6807519",
  "longitude": "-103.3443801",
  "address": "(GDL-006) C. Venustiano Carranza / C. Reforma *",
  "neighborhood": "El Retiro",
  "postal_code": "44280",
  "capacity": "11",
  "bikes_available": "11",
  "bikes_unavailable": "0",
  "docks_available": "0",
  "docks_unavailable": "0"
 },
 {
  "zone": "Guadalajara",
  "station_id": "9",
  "name": "(GDL-007)C. Epigmenio Glez./Av. Cristobal C.",
  "latitude": "20.666771",
  "longitude": "-103.350562",
  "address": "(GDL-007) C. Epigmenio González / Av. Cristóbal Colón",
  "neighborhood": "Mexicaltzingo",
  "postal_code": "44180",
  "capacity": "15",
  "bikes_available": "14",
  "bikes_unavailable": "1",
  "docks_available": "0",
  "docks_unavailable": "0"
 },
 {
  "zone": "Guadalajara",
  "station_id": "10",
  "name": "(GDL-008) C. J. Angulo / C. González Ortega",
  "latitude": "20.681871",
  "longitude": "-103.350396",
  "address": "(GDL-008) C. Joaquín Angulo / C. González Ortega *",
  "neighborhood": "Guadalajara Centro",
  "postal_code": "44100",
  "capacity": "15",
  "bikes_available": "13",
  "bikes_unavailable": "0",
  "docks_available": "2",
  "docks_unavailable": "0"
 },
 {
  "zone": "Guadalajara",
  "station_id": "11",
  "name": "(GDL-009) Calz. Federalismo/ C. J. Angulo",
  "latitude": "20.681984",
  "longitude": "-103.353835",
  "address": "(GDL-009) Calz. Federalismo / C. Joaquín Angulo *",
  "neighborhood": "Artesanos",
  "postal_code": "44200",
  "capacity": "23",
  "bikes_available": "12",
  "bikes_unavailable": "1",
  "docks_available": "10",
  "docks_unavailable": "0"
 },
 {
  "zone": "Guadalajara",
  "station_id": "12",
  "name": "(GDL-010) C. Cruz verde / C. Joaquin Angulo",
  "latitude": "20.681786",
  "longitude": "-103.357267",
  "address": "(GDL-010) C. Cruz Verde / C. Joaquín Angulo *",
  "neighborhood": "El Santuario",
  "postal_code": "44200",
  "capacity": "15",
  "bikes_available": "7",
  "bikes_unavailable": "0",
  "docks_available": "8",
  "docks_unavailable": "0"
 },
 {
  "zone": "Guadalajara",
  "station_id": "13",
  "name": "(GDL-011) C. Garibaldi / C. Frías",
  "latitude": "20.681081",
  "longitude": "-103.360099",
  "address": "(GDL-011) C. Garibaldi / C. Frías *",
  "neighborhood": "Sagrada Familia",
  "postal_code": "44200",
  "capacity": "11",
  "bikes_available": "3",
  "bikes_unavailable": "0",
  "docks_available": "8",
  "docks_unavailable": "1"
 },
 {
  "zone": "Guadalajara",
  "station_id": "14",
  "name": "(GDL-012) C. Joaquín Angulo / C. Ghilardi",
  "latitude": "20.681989",
  "longitude": "-103.36292",
  "address": "(GDL-012) C. Joaquín Angulo / C. Ghilardi*",
  "neighborhood": "Capilla de Jesús",
  "postal_code": "44200",
  "capacity": "11",
  "bikes_available": "4",
  "bikes_unavailable": "0",
  "docks_available": "7",
  "docks_unavailable": "0"
 },
 {
  "zone": "Guadalajara",
  "station_id": "15",
  "name": "(GDL-013) C. Vidrio  / C. Marsella",
  "latitude": "20.667623",
  "longitude": "-103.370499",
  "address": "(GDL-013) C. Vidrio  / C. Marsella",
  "neighborhood": "Obrera Centro",
  "postal_code": "44140",
  "capacity": "11",
  "bikes_available": "0",
  "bikes_unavailable": "1",
  "docks_available": "10",
  "docks_unavailable": "0"
 },
 {
  "zone": "Guadalajara",
  "station_id": "16",
  "name": "(GDL-014)C. J. Angulo/C. José Clemente Orozco",
  "latitude": "20.682059",
  "longitude": "-103.365969",
  "address": "(GDL-014) C. Joaquín Angulo / C. J. Clemente Orozco *",
  "neighborhood": "Villaseñor",
  "postal_code": "44600",
  "capacity": "19",
  "bikes_available": "8",
  "bikes_unavailable": "3",
  "docks_available": "8",
  "docks_unavailable": "0"
 },
 {
  "zone": "Guadalajara",
  "station_id": "17",
  "name": "(GDL-015) C. Herrera y Cairo /C. Pedro Buzeta",
  "latitude": "20.683191",
  "longitude": "-103.369349",
  "address": "(GDL-015) C. Herrera y Cairo / C. Pedro Buzeta *",
  "neighborhood": "Santa Teresita",
  "postal_code": "44600",
  "capacity": "15",
  "bikes_available": "7",
  "bikes_unavailable": "1",
  "docks_available": "7",
  "docks_unavailable": "0"
 },
 {
  "zone": "Guadalajara",
  "station_id": "18",
  "name": "(GDL-016)C. Bernardo de Balbuena/C. J. Angulo",
  "latitude": "20.682007",
  "longitude": "-103.372642",
  "address": "(GDL-016) C. Bernardo de Balbuena / C. Joaquín Angulo*",
  "neighborhood": "Santa Teresita",
  "postal_code": "44600",
  "capacity": "15",
  "bikes_available": "9",
  "bikes_unavailable": "0",
  "docks_available": "6",
  "docks_unavailable": "0"
 },
 {
  "zone": "Guadalajara",
  "station_id": "19",
  "name": "(GDL-017) Av. México /C. Bernardo de Balbuena",
  "latitude": "20.679086",
  "longitude": "-103.372841",
  "address": "(GDL-017) Av. México / C. Bernardo de Balbuena",
  "neighborhood": "Villaseñor",
  "postal_code": "44600",
  "capacity": "15",
  "bikes_available": "0",
  "bikes_unavailable": "0",
  "docks_available": "15",
  "docks_unavailable": "0"
 },
 {
  "zone": "Guadalajara",
  "station_id": "20",
  "name": "(GDL-018) Av. México / C. Manuel M. Diéguez",
  "latitude": "20.679296",
  "longitude": "-103.370658",
  "address": "(GDL-018) Av. México / C. Manuel M. Diéguez",
  "neighborhood": "Villaseñor",
  "postal_code": "44600",
  "capacity": "11",
  "bikes_available": "0",
  "bikes_unavailable": "0",
  "docks_available": "11",
  "docks_unavailable": "0"
 },
 {
  "zone": "Guadalajara",
  "station_id": "21",
  "name": "(GDL-019)  C. Juan Manuel / C. Andrés Terán",
  "latitude": "20.678835",
  "longitude": "-103.368045",
  "address": "(GDL-019) C. Juan Manuel / C. Andrés Terán",
  "neighborhood": "Ladrón de Guevara",
  "postal_code": "44600",
  "capacity": "23",
  "bikes_available": "0",
  "bikes_unavailable": "1",
  "docks_available": "22",
  "docks_unavailable": "0"
 },
 {
  "zone": "Guadalajara",
  "station_id": "23",
  "name": "(GDL-021) C. Nicolás Romero / C. Reforma",
  "latitude": "20.67966",
  "longitude": "-103.362224",
  "address": "(GDL-021) C. Nicolás Romero / C. Reforma*",
  "neighborhood": "Guadalajara Centro",
  "postal_code": "44100",
  "capacity": "15",
  "bikes_available": "4",
  "bikes_unavailable": "0",
  "docks_available": "11",
  "docks_unavailable": "0"
 },
 {
  "zone": "Guadalajara",
  "station_id": "24",
  "name": "(GDL-022)C. San Felipe /C. Enrique D. de León",
  "latitude": "20.679389",
  "longitude": "-103.35913",
  "address": "(GDL-022) C. San Felipe / Av. Enrique Díaz de León *",
  "neighborhood": "Guadalajara Centro",
  "postal_code": "44100",
  "capacity": "15",
  "bikes_available": "6",
  "bikes_unavailable": "2",
  "docks_available": "7",
  "docks_unavailable": "0"
 },
 {
  "zone": "Guadalajara",
  "station_id": "25",
  "name": "(GDL-023) C. Jesús / C. San Felipe",
  "latitude": "20.679309",
  "longitude": "-103.356281",
  "address": "(GDL-023) C. Jesús / C. San Felipe *",
  "neighborhood": "Guadalajara Centro",
  "postal_code": "44100",
  "capacity": "15",
  "bikes_available": "11",
  "bikes_unavailable": "0",
  "docks_available": "4",
  "docks_unavailable": "0"
 },
 {
  "zone": "Guadalajara",
  "station_id": "26",
  "name": "(GDL-024) Av.  Federalismo / C. Juan Manuel",
  "latitude": "20.678777",
  "longitude": "-103.354035",
  "address": "(GDL-024) Calz. Federalismo / C. Juan Manuel*",
  "neighborhood": "Guadalajara Centro",
  "postal_code": "44100",
  "capacity": "15",
  "bikes_available": "10",
  "bikes_unavailable": "4",
  "docks_available": "1",
  "docks_unavailable": "0"
 },
 {
  "zone": "Guadalajara",
  "station_id": "27",
  "name": "(GDL-025) C. Reforma / C. González Ortega",
  "latitude": "20.680227",
  "longitude": "-103.350146",
  "address": "(GDL-025) C. Reforma / C. González Ortega *",
  "neighborhood": "Guadalajara Centro",
  "postal_code": "44100",
  "capacity": "15",
  "bikes_available": "8",
  "bikes_unavailable": "0",
  "docks_available": "7",
  "docks_unavailable": "0"
 },
 {
  "zone": "Guadalajara",
  "station_id": "28",
  "name": "(GDL-026) C. Pedro Loza / C. Reforma",
  "latitude": "20.680478",
  "longitude": "-103.348377",
  "address": "(GDL-026) C. Pedro Loza / C. Reforma",
  "neighborhood": "Guadalajara Centro",
  "postal_code": "44100",
  "capacity": "15",
  "bikes_available": "1",
  "bikes_unavailable": "3",
  "docks_available": "11",
  "docks_unavailable": "0"
 },
 {
  "zone": "Guadalajara",
  "station_id": "29",
  "name": "(GDL-027) C. Belén / C. San Felipe",
  "latitude": "20.679861",
  "longitude": "-103.345198",
  "address": "(GDL-027) C. Belén / C. San Felipe *",
  "neighborhood": "Guadalajara Centro",
  "postal_code": "44100",
  "capacity": "11",
  "bikes_available": "4",
  "bikes_unavailable": "1",
  "docks_available": "6",
  "docks_unavailable": "0"
 },
 {
  "zone": "Guadalajara",
  "station_id": "30",
  "name": "(GDL-028) C. Gregorio Dávila /C. Manuel Acuña",
  "latitude": "20.684187",
  "longitude": "-103.36113",
  "address": "(GDL-028) C. Gregorio Dávila / C. Manuel Acuña *",
  "neighborhood": "Artesanos",
  "postal_code": "44200",
  "capacity": "11",
  "bikes_available": "8",
  "bikes_unavailable": "0",
  "docks_available": "3",
  "docks_unavailable": "0"
 },
 {
  "zone": "Guadalajara",
  "station_id": "31",
  "name": "(GDL-029)Calz. Indep. /C. Juan Manuel",
  "latitude": "20.679505",
  "longitude": "-103.339753",
  "address": "(GDL-029) Calz. Independencia / C. Juan Manuel",
  "neighborhood": "Guadalajara Centro",
  "postal_code": "44100",
  "capacity": "15",
  "bikes_available": "13",
  "bikes_unavailable": "2",
  "docks_available": "0",
  "docks_unavailable": "0"
 },
 {
  "zone": "Guadalajara",
  "station_id": "32",
  "name": "(GDL-030) C. Pedro Moreno/ C. Progreso",
  "latitude": "20.675461",
  "longitude": "-103.367501",
  "address": "(GDL-030) C. Pedro Moreno / C. Progreso",
  "neighborhood": "Americana",
  "postal_code": "44160",
  "capacity": "19",
  "bikes_available": "0",
  "bikes_unavailable": "1",
  "docks_available": "18",
  "docks_unavailable": "0"
 },
 {
  "zone": "Guadalajara",
  "station_id": "33",
  "name": "(GDL-031) C. Hospital / C. Andrés Terán",
  "latitude": "20.685652",
  "longitude": "-103.368215",
  "address": "(GDL-031) C. Hospital / C. Andrés Terán *",
  "neighborhood": "Ladrón de Guevara",
  "postal_code": "44600",
  "capacity": "11",
  "bikes_available": "6",
  "bikes_unavailable": "0",
  "docks_available": "5",
  "docks_unavailable": "0"
 },
 {
  "zone": "Guadalajara",
  "station_id": "34",
  "name": "(GDL-032) C. Degollado / Av. Hidalgo",
  "latitude": "20.6772627",
  "longitude": "-103.344908",
  "address": "(GDL-032) C. Degollado / Av. Hidalgo",
  "neighborhood": "Guadalajara Centro",
  "postal_code": "44100",
  "capacity": "15",
  "bikes_available": "8",
  "bikes_unavailable": "0",
  "docks_available": "7",
  "docks_unavailable": "0"
 },
 {
  "zone": "Guadalajara",
  "station_id": "35",
  "name": "(GDL-033) Av. Hidalgo / C. Pedro Loza",
  "latitude": "20.677419",
  "longitude": "-103.347983",
  "address": "(GDL-033) Av. Hidalgo / C. Pedro Loza",
  "neighborhood": "Guadalajara Centro",
  "postal_code": "44100",
  "capacity": "15",
  "bikes_available": "9",
  "bikes_unavailable": "0",
  "docks_available": "6",
  "docks_unavailable": "0"
 },
 {
  "zone": "Guadalajara",
  "station_id": "36",
  "name": "(GDL-034) C. Morelos / C. Donato Guerra",
  "latitude": "20.676461",
  "longitude": "-103.350244",
  "address": "(GDL-034) C. Morelos / C. Donato Guerra",
  "neighborhood": "Guadalajara Centro",
  "postal_code": "44100",
  "capacity": "15",
  "bikes_available": "6",
  "bikes_unavailable": "0",
  "docks_available": "9",
  "docks_unavailable": "0"
 },
 {
  "zone": "Guadalajara",
  "station_id": "37",
  "name": "(GDL-035)C. Mezquitán / Av. Hidalgo",
  "latitude": "20.677315",
  "longitude": "-103.3534145",
  "address": "(GDL-035) C. Mezquitán / Av. Hidalgo",
  "neighborhood": "Guadalajara Centro",
  "postal_code": "44100",
  "capacity": "11",
  "bikes_available": "3",
  "bikes_unavailable": "0",
  "docks_available": "8",
  "docks_unavailable": "0"
 },
 {
  "zone": "Guadalajara",
  "station_id": "38",
  "name": "(GDL-036) C. Marcos Castellanos/ C. Morelos",
  "latitude": "20.676078",
  "longitude": "-103.356458",
  "address": "(GDL-036) C. Marcos Castellanos / C. Morelos",
  "neighborhood": "Americana",
  "postal_code": "44160",
  "capacity": "23",
  "bikes_available": "17",
  "bikes_unavailable": "0",
  "docks_available": "6",
  "docks_unavailable": "0"
 },
 {
  "zone": "Guadalajara",
  "station_id": "39",
  "name": "(GDL-037) C.Juan N. Cumplido /C. Independenci",
  "latitude": "20.678034",
  "longitude": "-103.358466",
  "address": "(GDL-037) C. Juan N. Cumplido / C. Independencia",
  "neighborhood": "Guadalajara Centro",
  "postal_code": "44100",
  "capacity": "15",
  "bikes_available": "7",
  "bikes_unavailable": "3",
  "docks_available": "5",
  "docks_unavailable": "0"
 },
 {
  "zone": "Guadalajara",
  "station_id": "40",
  "name": "(GDL-038) C. Nicolás Romero / Av. Hidalgo",
  "latitude": "20.676656",
  "longitude": "-103.362331",
  "address": "(GDL-038) C. Nicolás Romero / Av. Hidalgo",
  "neighborhood": "Guadalajara Centro",
  "postal_code": "44100",
  "capacity": "15",
  "bikes_available": "6",
  "bikes_unavailable": "1",
  "docks_available": "8",
  "docks_unavailable": "0"
 },
 {
  "zone": "Guadalajara",
  "station_id": "41",
  "name": "(GDL-039) C. General Coronado / Av. Hidalgo",
  "latitude": "20.677108",
  "longitude": "-103.365088",
  "address": "(GDL-039) C. General Coronado / Av. Hidalgo",
  "neighborhood": "Guadalajara Centro",
  "postal_code": "44100",
  "capacity": "15",
  "bikes_available": "2",
  "bikes_unavailable": "0",
  "docks_available": "13",
  "docks_unavailable": "0"
 },
 {
  "zone": "Guadalajara",
  "station_id": "42",
  "name": "(GDL-040) C. Morelos / C. Progreso",
  "latitude": "20.676067",
  "longitude": "-103.367049",
  "address": "(GDL-040) C. Morelos / C. Progreso",
  "neighborhood": "Ladrón de Guevara",
  "postal_code": "44600",
  "capacity": "19",
  "bikes_available": "0",
  "bikes_unavailable": "1",
  "docks_available": "18",
  "docks_unavailable": "0"
 },
 {
  "zone": "Guadalajara",
  "station_id": "43",
  "name": "(GDL-041) C. Manuel M. Diéguez / Av. Hidalgo",
  "latitude": "20.67671",
  "longitude": "-103.37066",
  "address": "(GDL-041) C. Manuel M. Diéguez / Av. Hidalgo",
  "neighborhood": "Santa Teresita",
  "postal_code": "44600",
  "capacity": "15",
  "bikes_available": "0",
  "bikes_unavailable": "1",
  "docks_available": "14",
  "docks_unavailable": "0"
 },
 {
  "zone": "Guadalajara",
  "station_id": "44",
  "name": "(GDL-042) C. Bernardo de Balbuena /Av Hidalgo",
  "latitude": "20.676628",
  "longitude": "-103.372687",
  "address": "(GDL-042) C. Bernardo de Balbuena / Av. Hidalgo *",
  "neighborhood": "Santa Teresita",
  "postal_code": "44600",
  "capacity": "15",
  "bikes_available": "2",
  "bikes_unavailable": "0",
  "docks_available": "13",
  "docks_unavailable": "0"
 },
 {
  "zone": "Guadalajara",
  "station_id": "45",
  "name": "(GDL-043) C. Simón Bolivar / C. López Cotilla",
  "latitude": "20.673756",
  "longitude": "-103.372613",
  "address": "(GDL-043) C. Simón Bolivar / C. López Cotilla",
  "neighborhood": "Americana",
  "postal_code": "44160",
  "capacity": "11",
  "bikes_available": "0",
  "bikes_unavailable": "0",
  "docks_available": "11",
  "docks_unavailable": "0"
 },
 {
  "zone": "Guadalajara",
  "station_id": "46",
  "name": "(GDL-044)C. Gral. San Martín /Av.  Vallarta",
  "latitude": "20.674636",
  "longitude": "-103.371639",
  "address": "(GDL-044) C. Gral. San Martin /Av. Vallarta",
  "neighborhood": "Americana",
  "postal_code": "44160",
  "capacity": "19",
  "bikes_available": "0",
  "bikes_unavailable": "0",
  "docks_available": "19",
  "docks_unavailable": "0"
 },
 {
  "zone": "Guadalajara",
  "station_id": "47",
  "name": "(GDL-045) C. Pedro Moreno / C. Marsella",
  "latitude": "20.675444",
  "longitude": "-103.370147",
  "address": "(GDL-045) C. Pedro Moreno / C. Marsella",
  "neighborhood": "Americana",
  "postal_code": "44160",
  "capacity": "19",
  "bikes_available": "2",
  "bikes_unavailable": "1",
  "docks_available": "16",
  "docks_unavailable": "0"
 },
 {
  "zone": "Guadalajara",
  "station_id": "48",
  "name": "(GDL-046) C. Emerson / Av. Vallarta",
  "latitude": "20.675014",
  "longitude": "-103.365025",
  "address": "(GDL-046) C. Emerson / Av. Vallarta",
  "neighborhood": "Americana",
  "postal_code": "44160",
  "capacity": "11",
  "bikes_available": "0",
  "bikes_unavailable": "1",
  "docks_available": "10",
  "docks_unavailable": "0"
 },
 {
  "zone": "Guadalajara",
  "station_id": "49",
  "name": "(GDL-047) C. Robles Gil / Av. Vallarta",
  "latitude": "20.674931",
  "longitude": "-103.362351",
  "address": "(GDL-047) C. Robles Gil / Av. Vallarta",
  "neighborhood": "Americana",
  "postal_code": "44160",
  "capacity": "15",
  "bikes_available": "7",
  "bikes_unavailable": "1",
  "docks_available": "7",
  "docks_unavailable": "0"
 },
 {
  "zone": "Guadalajara",
  "station_id": "50",
  "name": "(GDL-048) C. Constancio Hernández/ Av. Juaréz",
  "latitude": "20.674721",
  "longitude": "-103.358548",
  "address": "(GDL-048) C. Constancio Hernández A. / Av. Juárez",
  "neighborhood": "Americana",
  "postal_code": "44160",
  "capacity": "23",
  "bikes_available": "5",
  "bikes_unavailable": "2",
  "docks_available": "16",
  "docks_unavailable": "1"
 },
 {
  "zone": "Guadalajara",
  "station_id": "51",
  "name": "(GDL-049) Lopez Cotilla/ Marcos Castellanos",
  "latitude": "20.6740865",
  "longitude": "-103.3563196",
  "address": "(GDL-049) C. López Cotilla/ C. Marcos Castellanos",
  "neighborhood": "Guadalajara Centro",
  "postal_code": "44100",
  "capacity": "33",
  "bikes_available": "29",
  "bikes_unavailable": "0",
  "docks_available": "4",
  "docks_unavailable": "1"
 },
 {
  "zone": "Guadalajara",
  "station_id": "52",
  "name": "(GDL-050) C. Pedro Moreno / Calz. Federalismo",
  "latitude": "20.675746",
  "longitude": "-103.354579",
  "address": "(GDL-050) C. Pedro Moreno / Calz. Federalismo",
  "neighborhood": "Guadalajara Centro",
  "postal_code": "44100",
  "capacity": "23",
  "bikes_available": "8",
  "bikes_unavailable": "4",
  "docks_available": "11",
  "docks_unavailable": "0"
 },
 {
  "zone": "Guadalajara",
  "station_id": "53",
  "name": "(GDL-051) C. 8 de Julio / Av. Juárez",
  "latitude": "20.674559",
  "longitude": "-103.352663",
  "address": "(GDL-051) C. 8 de Julio / Av. Juárez",
  "neighborhood": "Guadalajara Centro",
  "postal_code": "44100",
  "capacity": "15",
  "bikes_available": "4",
  "bikes_unavailable": "0",
  "docks_available": "11",
  "docks_unavailable": "0"
 },
 {
  "zone": "Guadalajara",
  "station_id": "54",
  "name": "(GDL-052) Av. Juárez / Av. 16 de Septiembre",
  "latitude": "20.675244",
  "longitude": "-103.347889",
  "address": "(GDL-052) Av. Juárez / Av. 16 de Septiembre",
  "neighborhood": "Guadalajara Centro",
  "postal_code": "44100",
  "capacity": "23",
  "bikes_available": "9",
  "bikes_unavailable": "1",
  "docks_available": "13",
  "docks_unavailable": "0"
 },
 {
  "zone": "Guadalajara",
  "station_id": "55",
  "name": "(GDL-053) C. Maestranza / Av. Juárez",
  "latitude": "20.675401",
  "longitude": "-103.345665",
  "address": "(GDL-053) C. Maestranza / Av. Juárez",
  "neighborhood": "Guadalajara Centro",
  "postal_code": "44100",
  "capacity": "15",
  "bikes_available": "10",
  "bikes_unavailable": "0",
  "docks_available": "5",
  "docks_unavailable": "0"
 },
 {
  "zone": "Guadalajara",
  "station_id": "56",
  "name": "(GDL-054) Av. Juárez / Calz. Independencia",
  "latitude": "20.675421",
  "longitude": "-103.342049",
  "address": "(GDL-054) Av. Juárez / Calz. Independencia",
  "neighborhood": "Guadalajara Centro",
  "postal_code": "44100",
  "capacity": "27",
  "bikes_available": "27",
  "bikes_unavailable": "0",
  "docks_available": "0",
  "docks_unavailable": "0"
 },
 {
  "zone": "Guadalajara",
  "station_id": "57",
  "name": "(GDL-055) C. Degollado /C.Prisciliano Sánchez",
  "latitude": "20.672696",
  "longitude": "-103.345366",
  "address": "(GDL-055) C. Degollado / C.Prisciliano Sánchez",
  "neighborhood": "Guadalajara Centro",
  "postal_code": "44100",
  "capacity": "15",
  "bikes_available": "8",
  "bikes_unavailable": "0",
  "docks_available": "7",
  "docks_unavailable": "0"
 },
 {
  "zone": "Guadalajara",
  "station_id": "58",
  "name": "(GDL-056) Av. 16 de Sept. / C. Miguel Blanco",
  "latitude": "20.671971",
  "longitude": "-103.347422",
  "address": "(GDL-056) Av. 16 de Septiembre / C. Miguel Blanco",
  "neighborhood": "Guadalajara Centro",
  "postal_code": "44100",
  "capacity": "19",
  "bikes_available": "14",
  "bikes_unavailable": "0",
  "docks_available": "5",
  "docks_unavailable": "0"
 },
 {
  "zone": "Guadalajara",
  "station_id": "59",
  "name": "(GDL-057) C. Ocampo / C. Prisciliano Sánchez",
  "latitude": "20.672516",
  "longitude": "-103.349573",
  "address": "(GDL-057) C. Ocampo / C. Prisciliano Sánchez",
  "neighborhood": "Guadalajara Centro",
  "postal_code": "44100",
  "capacity": "11",
  "bikes_available": "10",
  "bikes_unavailable": "0",
  "docks_available": "1",
  "docks_unavailable": "0"
 },
 {
  "zone": "Guadalajara",
  "station_id": "60",
  "name": "(GDL-058) C. Pavo / C. Prisciliano Sánchez",
  "latitude": "20.672641",
  "longitude": "-103.353542",
  "address": "(GDL-058) C. Pavo / C. Prisciliano Sánchez *",
  "neighborhood": "Guadalajara Centro",
  "postal_code": "44100",
  "capacity": "11",
  "bikes_available": "5",
  "bikes_unavailable": "0",
  "docks_available": "6",
  "docks_unavailable": "0"
 },
 {
  "zone": "Guadalajara",
  "station_id": "61",
  "name": "(GDL-059) C. Miguel Blanco / C. Penitenciaria",
  "latitude": "20.672231",
  "longitude": "-103.355508",
  "address": "(GDL-059) C. Miguel Blanco / C. Penitenciaria",
  "neighborhood": "Americana",
  "postal_code": "44160",
  "capacity": "15",
  "bikes_available": "9",
  "bikes_unavailable": "0",
  "docks_available": "6",
  "docks_unavailable": "0"
 },
 {
  "zone": "Guadalajara",
  "station_id": "62",
  "name": "(GDL-060) C. Madero/ C. Camarena",
  "latitude": "20.6734",
  "longitude": "-103.357684",
  "address": "(GDL-060) C. Madero/ C. Camarena",
  "neighborhood": "Americana",
  "postal_code": "44160",
  "capacity": "23",
  "bikes_available": "7",
  "bikes_unavailable": "1",
  "docks_available": "15",
  "docks_unavailable": "0"
 },
 {
  "zone": "Guadalajara",
  "station_id": "63",
  "name": "(GDL-061) C. Libertad /  C. Argentina",
  "latitude": "20.671778",
  "longitude": "-103.361274",
  "address": "(GDL-061) C. Libertad /  C. Argentina",
  "neighborhood": "Americana",
  "postal_code": "44160",
  "capacity": "19",
  "bikes_available": "7",
  "bikes_unavailable": "3",
  "docks_available": "9",
  "docks_unavailable": "0"
 },
 {
  "zone": "Guadalajara",
  "station_id": "64",
  "name": "(GDL-062) C. Libertad / C. Moscú",
  "latitude": "20.673072",
  "longitude": "-103.365055",
  "address": "(GDL-062) C. Libertad / C. Moscú",
  "neighborhood": "Americana",
  "postal_code": "44160",
  "capacity": "15",
  "bikes_available": "2",
  "bikes_unavailable": "0",
  "docks_available": "13",
  "docks_unavailable": "0"
 },
 {
  "zone": "Guadalajara",
  "station_id": "65",
  "name": "(GDL-063) C. Colonias  / C. López Cotilla",
  "latitude": "20.674132",
  "longitude": "-103.366139",
  "address": "(GDL-063) C. Colonias  / C. López Cotilla",
  "neighborhood": "Americana",
  "postal_code": "44160",
  "capacity": "27",
  "bikes_available": "6",
  "bikes_unavailable": "1",
  "docks_available": "20",
  "docks_unavailable": "0"
 },
 {
  "zone": "Guadalajara",
  "station_id": "66",
  "name": "(GDL-064) C. Marsella / C. López Cotilla",
  "latitude": "20.673321",
  "longitude": "-103.370571",
  "address": "(GDL-064) C. Marsella / C. López Cotilla",
  "neighborhood": "Americana",
  "postal_code": "44160",
  "capacity": "19",
  "bikes_available": "0",
  "bikes_unavailable": "0",
  "docks_available": "19",
  "docks_unavailable": "0"
 },
 {
  "zone": "Guadalajara",
  "station_id": "67",
  "name": "(GDL-065) C. Simón Bolivar / Av. La Paz",
  "latitude": "20.6722064",
  "longitude": "-103.372588",
  "address": "(GDL-065) C. Simón Bolivar / Av. La Paz",
  "neighborhood": "Americana",
  "postal_code": "44160",
  "capacity": "19",
  "bikes_available": "2",
  "bikes_unavailable": "0",
  "docks_available": "17",
  "docks_unavailable": "0"
 },
 {
  "zone": "Guadalajara",
  "station_id": "68",
  "name": "(GDL-066) C Lerdo de Tejada/C Gral. Sn Martín",
  "latitude": "20.671364",
  "longitude": "-103.371786",
  "address": "(GDL-066) C. Lerdo de Tejada / C. Gral. San Martin",
  "neighborhood": "Americana",
  "postal_code": "44160",
  "capacity": "15",
  "bikes_available": "3",
  "bikes_unavailable": "0",
  "docks_available": "12",
  "docks_unavailable": "0"
 },
 {
  "zone": "Guadalajara",
  "station_id": "69",
  "name": "(GDL-067) Calzada Federalismo / C. Vidrio",
  "latitude": "20.6668825",
  "longitude": "-103.3555917",
  "address": "(GDL-067) Calz. Federalismo / C. Vidrio *",
  "neighborhood": "Americana",
  "postal_code": "44160",
  "capacity": "19",
  "bikes_available": "18",
  "bikes_unavailable": "1",
  "docks_available": "0",
  "docks_unavailable": "0"
 },
 {
  "zone": "Guadalajara",
  "station_id": "70",
  "name": "(GDL-068) C. Guadalupe Zuno / Av. Chapultepec",
  "latitude": "20.670512",
  "longitude": "-103.368306",
  "address": "(GDL-068) C. Guadalupe Zuno / Av. Chapultepec",
  "neighborhood": "Americana",
  "postal_code": "44160",
  "capacity": "19",
  "bikes_available": "1",
  "bikes_unavailable": "0",
  "docks_available": "18",
  "docks_unavailable": "0"
 },
 {
  "zone": "Guadalajara",
  "station_id": "71",
  "name": "(GDL-069) C. Colonias / C. Guadalupe Zuno",
  "latitude": "20.670468",
  "longitude": "-103.366071",
  "address": "(GDL-069) C. Colonias / C. Guadalupe Zuno",
  "neighborhood": "Americana",
  "postal_code": "44160",
  "capacity": "15",
  "bikes_available": "7",
  "bikes_unavailable": "0",
  "docks_available": "8",
  "docks_unavailable": "0"
 },
 {
  "zone": "Guadalajara",
  "station_id": "72",
  "name": "(GDL-070) Av. La  Paz / C. Juan de Ojeda",
  "latitude": "20.671455",
  "longitude": "-103.363633",
  "address": "(GDL-070) Av. La  Paz / C. Juan de Ojeda",
  "neighborhood": "Americana",
  "postal_code": "44160",
  "capacity": "11",
  "bikes_available": "5",
  "bikes_unavailable": "0",
  "docks_available": "6",
  "docks_unavailable": "0"
 },
 {
  "zone": "Guadalajara",
  "station_id": "73",
  "name": "(GDL-071) Av. La Paz /Av.Enrique Díaz de León",
  "latitude": "20.670362",
  "longitude": "-103.359537",
  "address": "(GDL-071) Av. La Paz / Av. Enrique Díaz de León",
  "neighborhood": "Americana",
  "postal_code": "44160",
  "capacity": "15",
  "bikes_available": "2",
  "bikes_unavailable": "1",
  "docks_available": "12",
  "docks_unavailable": "0"
 },
 {
  "zone": "Guadalajara",
  "station_id": "74",
  "name": "(GDL-072) Av. La Paz / C. Camarena",
  "latitude": "20.67056",
  "longitude": "-103.357589",
  "address": "(GDL-072) Av. La Paz / C. Camarena *",
  "neighborhood": "Americana",
  "postal_code": "44160",
  "capacity": "15",
  "bikes_available": "11",
  "bikes_unavailable": "2",
  "docks_available": "2",
  "docks_unavailable": "0"
 },
 {
  "zone": "Guadalajara",
  "station_id": "75",
  "name": "(GDL-073) Av. La Paz / Av. Federalismo",
  "latitude": "20.669955",
  "longitude": "-103.355032",
  "address": "(GDL-073) Av. La Paz / Calz. Federalismo",
  "neighborhood": "Americana",
  "postal_code": "44160",
  "capacity": "19",
  "bikes_available": "13",
  "bikes_unavailable": "1",
  "docks_available": "5",
  "docks_unavailable": "0"
 },
 {
  "zone": "Guadalajara",
  "station_id": "76",
  "name": "(GDL-074) C. Enrique González / C. Libertad",
  "latitude": "20.67131",
  "longitude": "-103.351651",
  "address": "(GDL-074) C. E. González Martínez / C. Libertad *",
  "neighborhood": "Guadalajara Centro",
  "postal_code": "44100",
  "capacity": "11",
  "bikes_available": "9",
  "bikes_unavailable": "1",
  "docks_available": "1",
  "docks_unavailable": "0"
 },
 {
  "zone": "Guadalajara",
  "station_id": "77",
  "name": "(GDL-075) C. Pedro Rioseco /C. Nueva Galicia",
  "latitude": "20.669628",
  "longitude": "-103.348768",
  "address": "(GDL-075) C. Pedro Rioseco / C. Nueva Galicia",
  "neighborhood": "Guadalajara Centro",
  "postal_code": "44100",
  "capacity": "11",
  "bikes_available": "5",
  "bikes_unavailable": "0",
  "docks_available": "6",
  "docks_unavailable": "0"
 },
 {
  "zone": "Guadalajara",
  "station_id": "78",
  "name": "(GDL-076) C. Ramón Corona / C. Libertad",
  "latitude": "20.670243",
  "longitude": "-103.346195",
  "address": "(GDL-076) C. Ramón Corona / C. Libertad",
  "neighborhood": "Guadalajara Centro",
  "postal_code": "44100",
  "capacity": "15",
  "bikes_available": "10",
  "bikes_unavailable": "0",
  "docks_available": "5",
  "docks_unavailable": "0"
 },
 {
  "zone": "Guadalajara",
  "station_id": "79",
  "name": "(GDL-077) C. Argentina / C. Pedro Moreno",
  "latitude": "20.675631",
  "longitude": "-103.36134",
  "address": "(GDL-077) C. Argentina / C. Pedro Moreno",
  "neighborhood": "Americana",
  "postal_code": "44160",
  "capacity": "15",
  "bikes_available": "6",
  "bikes_unavailable": "1",
  "docks_available": "8",
  "docks_unavailable": "0"
 },
 {
  "zone": "Guadalajara",
  "station_id": "80",
  "name": "(GDL-078) C. Comercio / C. La Paz",
  "latitude": "20.667946",
  "longitude": "-103.346775",
  "address": "(GDL-078) C. Comercio / Av. La Paz",
  "neighborhood": "Guadalajara Centro",
  "postal_code": "44100",
  "capacity": "15",
  "bikes_available": "3",
  "bikes_unavailable": "0",
  "docks_available": "12",
  "docks_unavailable": "0"
 },
 {
  "zone": "Guadalajara",
  "station_id": "81",
  "name": "(GDL-079)  C. Donato Guerra /Av. La Paz",
  "latitude": "20.6688627",
  "longitude": "-103.35130221",
  "address": "(GDL-079) C. Donato Guerra /Av. La Paz *",
  "neighborhood": "Mexicaltzingo",
  "postal_code": "44180",
  "capacity": "11",
  "bikes_available": "8",
  "bikes_unavailable": "0",
  "docks_available": "3",
  "docks_unavailable": "0"
 },
 {
  "zone": "Guadalajara",
  "station_id": "82",
  "name": "(GDL-080) C. Manuel Acuña / Av. Américas",
  "latitude": "20.68432",
  "longitude": "-103.373252",
  "address": "(GDL-080) C. Manuel Acuña / Av. Américas *",
  "neighborhood": "Villaseñor",
  "postal_code": "44600",
  "capacity": "19",
  "bikes_available": "5",
  "bikes_unavailable": "0",
  "docks_available": "14",
  "docks_unavailable": "0"
 },
 {
  "zone": "Guadalajara",
  "station_id": "83",
  "name": "(GDL-081) C. Venezuela / Av. Niños Héroes",
  "latitude": "20.667352",
  "longitude": "-103.363338",
  "address": "(GDL-081) C. Venezuela / Av. Niños Héroes",
  "neighborhood": "Americana",
  "postal_code": "44160",
  "capacity": "11",
  "bikes_available": "1",
  "bikes_unavailable": "0",
  "docks_available": "10",
  "docks_unavailable": "0"
 },
 {
  "zone": "Guadalajara",
  "station_id": "84",
  "name": "(GDL-082)C. Gdpe. Montenegro/C.Nuño de Guzman",
  "latitude": "20.669326",
  "longitude": "-103.362535",
  "address": "(GDL-082) C. Gdpe. Montenegro/ C. Nuño de Guzman *",
  "neighborhood": "Americana",
  "postal_code": "44160",
  "capacity": "15",
  "bikes_available": "3",
  "bikes_unavailable": "0",
  "docks_available": "12",
  "docks_unavailable": "0"
 },
 {
  "zone": "Guadalajara",
  "station_id": "85",
  "name": "(GDL-083) C. Vidrio / Av. Enrique Díaz",
  "latitude": "20.667532",
  "longitude": "-103.3595222",
  "address": "(GDL-083) C. Vidrio / Av. Enrique Díaz de León *",
  "neighborhood": "Americana",
  "postal_code": "44160",
  "capacity": "19",
  "bikes_available": "11",
  "bikes_unavailable": "0",
  "docks_available": "8",
  "docks_unavailable": "0"
 },
 {
  "zone": "Guadalajara",
  "station_id": "86",
  "name": "(GDL-084) C. Montenegro / Av. Chapultepec",
  "latitude": "20.669306",
  "longitude": "-103.368312",
  "address": "(GDL-084) C. Montenegro / Av. Chapultepec",
  "neighborhood": "Americana",
  "postal_code": "44160",
  "capacity": "23",
  "bikes_available": "0",
  "bikes_unavailable": "3",
  "docks_available": "20",
  "docks_unavailable": "0"
 },
 {
  "zone": "Guadalajara",
  "station_id": "87",
  "name": "(GDL-085)C. Gdpe. Zuno/ Av.  Unión",
  "latitude": "20.670426",
  "longitude": "-103.373378",
  "address": "(GDL-085) C. Gdpe. Zuno/ Av.  Unión",
  "neighborhood": "Obrera Centro",
  "postal_code": "44140",
  "capacity": "15",
  "bikes_available": "5",
  "bikes_unavailable": "0",
  "docks_available": "10",
  "docks_unavailable": "0"
 },
 {
  "zone": "Guadalajara",
  "station_id": "88",
  "name": "(GDL-086) C. Simón Bolivar / Av. Niños Héroes",
  "latitude": "20.66704",
  "longitude": "-103.372444",
  "address": "(GDL-086) C. Simón Bolivar / Av. Niños Héroes*",
  "neighborhood": "Obrera Centro",
  "postal_code": "44140",
  "capacity": "15",
  "bikes_available": "8",
  "bikes_unavailable": "0",
  "docks_available": "7",
  "docks_unavailable": "0"
 },
 {
  "zone": "Guadalajara",
  "station_id": "154",
  "name": "(GDL-087) Av. Américas / Av. López Mateos",
  "latitude": "20.69493",
  "longitude": "-103.37333",
  "address": "(GDL-087) Av. Américas / Av. López Mateos",
  "neighborhood": "Italia Providencia",
  "postal_code": "44648",
  "capacity": "15",
  "bikes_available": "0",
  "bikes_unavailable": "0",
  "docks_available": "15",
  "docks_unavailable": "0"
 },
 {
  "zone": "Guadalajara",
  "station_id": "155",
  "name": "(GDL-088) Av.Plan de San Luis/C. Andrés Teran",
  "latitude": "20.6972",
  "longitude": "-103.36773",
  "address": "(GDL-088) Av. Plan de San Luis / C. Andrés Terán *",
  "neighborhood": "Lomas Del Country",
  "postal_code": "44610",
  "capacity": "15",
  "bikes_available": "6",
  "bikes_unavailable": "0",
  "docks_available": "9",
  "docks_unavailable": "0"
 },
 {
  "zone": "Guadalajara",
  "station_id": "156",
  "name": "(GDL-089) C. Juan Álvarez / C. Cruz Verde",
  "latitude": "20.68456",
  "longitude": "-103.35699",
  "address": "(GDL-089) C. Juan Álvarez / C. Cruz Verde",
  "neighborhood": "Capilla de Jesús",
  "postal_code": "44200",
  "capacity": "15",
  "bikes_available": "6",
  "bikes_unavailable": "2",
  "docks_available": "7",
  "docks_unavailable": "0"
 },
 {
  "zone": "Guadalajara",
  "station_id": "157",
  "name": "(GDL-090) Calz. Federalismo / C. Durango",
  "latitude": "20.69865",
  "longitude": "-103.35519",
  "address": "(GDL-090) Calz. Federalismo / C. Durango*",
  "neighborhood": "Niños Héroes",
  "postal_code": "44260",
  "capacity": "19",
  "bikes_available": "13",
  "bikes_unavailable": "1",
  "docks_available": "5",
  "docks_unavailable": "0"
 },
 {
  "zone": "Guadalajara",
  "station_id": "158",
  "name": "(GDL-091) C. Magisterio /Av. M. Ávila Camacho",
  "latitude": "20.696097",
  "longitude": "-103.349382",
  "address": "(GDL-091) C. Magisterio / Av. M. Ávila Camacho *",
  "neighborhood": "Observatorio",
  "postal_code": "44266",
  "capacity": "19",
  "bikes_available": "18",
  "bikes_unavailable": "1",
  "docks_available": "0",
  "docks_unavailable": "0"
 },
 {
  "zone": "Guadalajara",
  "station_id": "159",
  "name": "(GDL-092) Calz Federalismo / Av Plan San Luis",
  "latitude": "20.69610588",
  "longitude": "-103.3549492",
  "address": "(GDL-092) Calz. Federalismo / Av. Plan San Luis *",
  "neighborhood": "Niños Héroes",
  "postal_code": "44260",
  "capacity": "15",
  "bikes_available": "15",
  "bikes_unavailable": "0",
  "docks_available": "0",
  "docks_unavailable": "0"
 },
 {
  "zone": "Guadalajara",
  "station_id": "160",
  "name": "(GDL-093) C. H Colegio Militar / Av. Américas",
  "latitude": "20.69311",
  "longitude": "-103.37298",
  "address": "(GDL-093) C. H. Colegio Militar / Av. Américas",
  "neighborhood": "Ayuntamiento",
  "postal_code": "44620",
  "capacity": "15",
  "bikes_available": "0",
  "bikes_unavailable": "2",
  "docks_available": "13",
  "docks_unavailable": "0"
 },
 {
  "zone": "Guadalajara",
  "station_id": "161",
  "name": "(GDL-094) C. Manuel Cambre / C. Andrés Teran",
  "latitude": "20.69324",
  "longitude": "-103.36757",
  "address": "(GDL-094) C. Manuel Cambre / C. Andrés Terán *",
  "neighborhood": "Santa Teresita",
  "postal_code": "44600",
  "capacity": "15",
  "bikes_available": "7",
  "bikes_unavailable": "1",
  "docks_available": "7",
  "docks_unavailable": "0"
 },
 {
  "zone": "Guadalajara",
  "station_id": "162",
  "name": "(GDL-095)  C. Mariano Bárcena / Maestros",
  "latitude": "20.692725",
  "longitude": "-103.3516",
  "address": "(GDL-095) C. Mariano Bárcena / Av. de los Maestros",
  "neighborhood": "Artesanos",
  "postal_code": "44200",
  "capacity": "19",
  "bikes_available": "12",
  "bikes_unavailable": "1",
  "docks_available": "6",
  "docks_unavailable": "0"
 },
 {
  "zone": "Guadalajara",
  "station_id": "163",
  "name": "(GDL-096) C. Jesús García / C. González Orte",
  "latitude": "20.6891",
  "longitude": "-103.35071",
  "address": "(GDL-096) C. Jesús García / C. González Ortega",
  "neighborhood": "Artesanos",
  "postal_code": "44200",
  "capacity": "19",
  "bikes_available": "15",
  "bikes_unavailable": "2",
  "docks_available": "2",
  "docks_unavailable": "0"
 },
 {
  "zone": "Guadalajara",
  "station_id": "164",
  "name": "(GDL-097) C. María Vigil / C. Juan N Cumplido",
  "latitude": "20.68981",
  "longitude": "-103.3582",
  "address": "(GDL-097) C. María Vigil / C. Juan N. Cumplido *",
  "neighborhood": "San Bernardo",
  "postal_code": "44260",
  "capacity": "19",
  "bikes_available": "7",
  "bikes_unavailable": "1",
  "docks_available": "11",
  "docks_unavailable": "0"
 },
 {
  "zone": "Guadalajara",
  "station_id": "165",
  "name": "(GDL-098) Calz. Federalismo / Av. Maestros",
  "latitude": "20.693072",
  "longitude": "-103.354209",
  "address": "(GDL-098) Calz. Federalismo / Av. de los Maestros*",
  "neighborhood": "Sagrada Familia",
  "postal_code": "44200",
  "capacity": "23",
  "bikes_available": "12",
  "bikes_unavailable": "4",
  "docks_available": "7",
  "docks_unavailable": "0"
 },
 {
  "zone": "Guadalajara",
  "station_id": "166",
  "name": "(GDL-099) C. Eulogio Parra /C.González Ortega",
  "latitude": "20.687196",
  "longitude": "-103.350525",
  "address": "(GDL-099) C. Gral. Eulogio Parra / C. González Ortega *",
  "neighborhood": "Guadalajara Centro",
  "postal_code": "44100",
  "capacity": "11",
  "bikes_available": "8",
  "bikes_unavailable": "0",
  "docks_available": "3",
  "docks_unavailable": "0"
 },
 {
  "zone": "Guadalajara",
  "station_id": "167",
  "name": "(GDL-100) C. Ayuntamiento/C. A. R. Plasencia",
  "latitude": "20.69269",
  "longitude": "-103.37082",
  "address": "(GDL-100) C. Ayuntamiento / C. Alfredo R. Plasencia *",
  "neighborhood": "Chapultepec Country",
  "postal_code": "44620",
  "capacity": "15",
  "bikes_available": "1",
  "bikes_unavailable": "0",
  "docks_available": "14",
  "docks_unavailable": "0"
 },
 {
  "zone": "Guadalajara",
  "station_id": "168",
  "name": "(GDL-101) C. Amado Nervo /C. José María Vigil",
  "latitude": "20.68969",
  "longitude": "-103.37486",
  "address": "(GDL-101) C. Amado Nervo / C. José María Vigil",
  "neighborhood": "Villaseñor",
  "postal_code": "44600",
  "capacity": "15",
  "bikes_available": "6",
  "bikes_unavailable": "1",
  "docks_available": "8",
  "docks_unavailable": "0"
 },
 {
  "zone": "Guadalajara",
  "station_id": "169",
  "name": "(GDL-102) C. María Vigil/C. Manuel M. Dieguez",
  "latitude": "20.68985",
  "longitude": "-103.37071",
  "address": "(GDL-102) C. José María Vigil / C. Manuel M. Dieguez *",
  "neighborhood": "Ayuntamiento",
  "postal_code": "44620",
  "capacity": "11",
  "bikes_available": "6",
  "bikes_unavailable": "1",
  "docks_available": "4",
  "docks_unavailable": "0"
 },
 {
  "zone": "Guadalajara",
  "station_id": "170",
  "name": "(GDL-103) J. Clemente Orozco /C. Jesús García",
  "latitude": "20.68861",
  "longitude": "-103.365814",
  "address": "(GDL-103) C. J. Clemente Orozco / C. Jesús García *",
  "neighborhood": "Villaseñor",
  "postal_code": "44600",
  "capacity": "15",
  "bikes_available": "9",
  "bikes_unavailable": "0",
  "docks_available": "6",
  "docks_unavailable": "0"
 },
 {
  "zone": "Guadalajara",
  "station_id": "171",
  "name": "(GDL-104) C. Pedro Loza / Av. Manuel Acuña",
  "latitude": "20.68348",
  "longitude": "-103.34853",
  "address": "(GDL-104) C. Pedro Loza / Av. Manuel Acuña*",
  "neighborhood": "Guadalajara Centro",
  "postal_code": "44100",
  "capacity": "19",
  "bikes_available": "13",
  "bikes_unavailable": "0",
  "docks_available": "6",
  "docks_unavailable": "0"
 },
 {
  "zone": "Guadalajara",
  "station_id": "172",
  "name": "(GDL-105) C. Pino Suárez / C. Joaquin Angulo",
  "latitude": "20.6822",
  "longitude": "-103.34601",
  "address": "(GDL-105) C. Pino Suárez / C. Joaquín Angulo*",
  "neighborhood": "El Retiro",
  "postal_code": "44280",
  "capacity": "15",
  "bikes_available": "13",
  "bikes_unavailable": "2",
  "docks_available": "0",
  "docks_unavailable": "0"
 },
 {
  "zone": "Guadalajara",
  "station_id": "173",
  "name": "(GDL-106) C. Juan Álvarez / C. Belén",
  "latitude": "20.68465",
  "longitude": "-103.34526",
  "address": "(GDL-106) C. Juan Álvarez / C. Belén*",
  "neighborhood": "El Retiro",
  "postal_code": "44280",
  "capacity": "23",
  "bikes_available": "22",
  "bikes_unavailable": "1",
  "docks_available": "0",
  "docks_unavailable": "0"
 },
 {
  "zone": "Guadalajara",
  "station_id": "174",
  "name": "(GDL-107) Calz. Federalismo/C. J. María Vigil",
  "latitude": "20.68981",
  "longitude": "-103.353973",
  "address": "(GDL-107) Calz. Federalismo / C. José María Vigil *",
  "neighborhood": "Sagrada Familia",
  "postal_code": "44200",
  "capacity": "15",
  "bikes_available": "6",
  "bikes_unavailable": "0",
  "docks_available": "9",
  "docks_unavailable": "0"
 },
 {
  "zone": "Guadalajara",
  "station_id": "175",
  "name": "(GDL-108) C. Hospital / C. Alameda",
  "latitude": "20.68586",
  "longitude": "-103.33964",
  "address": "(GDL-108) C. Hospital / C. Alameda *",
  "neighborhood": "El Retiro",
  "postal_code": "44280",
  "capacity": "11",
  "bikes_available": "6",
  "bikes_unavailable": "1",
  "docks_available": "4",
  "docks_unavailable": "0"
 },
 {
  "zone": "Guadalajara",
  "station_id": "176",
  "name": "(GDL-109) C. Eulogio Parra / Av. Américas",
  "latitude": "20.68725",
  "longitude": "-103.37363",
  "address": "(GDL-109) C. Eulogio Parra / Av. Américas",
  "neighborhood": "El Santuario",
  "postal_code": "44200",
  "capacity": "19",
  "bikes_available": "1",
  "bikes_unavailable": "0",
  "docks_available": "18",
  "docks_unavailable": "0"
 },
 {
  "zone": "Guadalajara",
  "station_id": "177",
  "name": "(GDL-110) C. Manuel Diéguez/Av. Eulogio Parra",
  "latitude": "20.68723",
  "longitude": "-103.37084",
  "address": "(GDL-110) C. Manuel Diéguez / C. Gral. Eulogio Parra *",
  "neighborhood": "Villaseñor",
  "postal_code": "44600",
  "capacity": "11",
  "bikes_available": "3",
  "bikes_unavailable": "2",
  "docks_available": "6",
  "docks_unavailable": "0"
 },
 {
  "zone": "Guadalajara",
  "station_id": "178",
  "name": "(GDL-111) C. José Palomar / C. Hospital",
  "latitude": "20.686228",
  "longitude": "-103.336305",
  "address": "(GDL-111) C. José Palomar / C. Hospital *",
  "neighborhood": "El Retiro",
  "postal_code": "44280",
  "capacity": "15",
  "bikes_available": "9",
  "bikes_unavailable": "6",
  "docks_available": "0",
  "docks_unavailable": "1"
 },
 {
  "zone": "Guadalajara",
  "station_id": "179",
  "name": "(GDL-112) C. C. Orozco/C. Gral. Eulogio Parra",
  "latitude": "20.687",
  "longitude": "-103.36582",
  "address": "(GDL-112) C. J. Clemente Orozco / C. Gral. Eulogio Parra *",
  "neighborhood": "Ladrón de Guevara",
  "postal_code": "44600",
  "capacity": "11",
  "bikes_available": "8",
  "bikes_unavailable": "1",
  "docks_available": "2",
  "docks_unavailable": "0"
 },
 {
  "zone": "Guadalajara",
  "station_id": "180",
  "name": "(GDL-113) C. Ghilardi / C. Arista",
  "latitude": "20.6880337",
  "longitude": "-103.362716",
  "address": "(GDL-113) C. Ghilardi / C. Arista *",
  "neighborhood": "Ladrón de Guevara",
  "postal_code": "44600",
  "capacity": "15",
  "bikes_available": "9",
  "bikes_unavailable": "2",
  "docks_available": "4",
  "docks_unavailable": "0"
 },
 {
  "zone": "Guadalajara",
  "station_id": "181",
  "name": "(GDL-114) C. Monte Cáucaso / C. Alameda",
  "latitude": "20.68925",
  "longitude": "-103.3361",
  "address": "(GDL-114) C. Monte Cáucaso / C. Alameda *",
  "neighborhood": "El Retiro",
  "postal_code": "44280",
  "capacity": "15",
  "bikes_available": "13",
  "bikes_unavailable": "2",
  "docks_available": "0",
  "docks_unavailable": "0"
 },
 {
  "zone": "Guadalajara",
  "station_id": "182",
  "name": "(GDL-115) Calz. Federalismo / C. Fco. Zarco",
  "latitude": "20.68605",
  "longitude": "-103.35408",
  "address": "(GDL-115) Calz. Federalismo / C. Fco. Zarco",
  "neighborhood": "Sagrada Familia",
  "postal_code": "44200",
  "capacity": "15",
  "bikes_available": "6",
  "bikes_unavailable": "2",
  "docks_available": "7",
  "docks_unavailable": "0"
 },
 {
  "zone": "Guadalajara",
  "station_id": "183",
  "name": "(GDL-116) Av Manuel Acuña/C. Pablo Villaseñor",
  "latitude": "20.68447",
  "longitude": "-103.37989",
  "address": "(GDL-116) Av. Manuel Acuña / C. Pablo Villaseñor*",
  "neighborhood": "Villaseñor",
  "postal_code": "44600",
  "capacity": "11",
  "bikes_available": "3",
  "bikes_unavailable": "0",
  "docks_available": "8",
  "docks_unavailable": "0"
 },
 {
  "zone": "Guadalajara",
  "station_id": "184",
  "name": "(GDL-117) Av Manuel Acuña / C Fray Fco Frejes",
  "latitude": "20.68427",
  "longitude": "-103.37653",
  "address": "(GDL-117) Av. Manuel Acuña / C. Fray Fco. Frejes*",
  "neighborhood": "Villaseñor",
  "postal_code": "44600",
  "capacity": "11",
  "bikes_available": "1",
  "bikes_unavailable": "0",
  "docks_available": "10",
  "docks_unavailable": "0"
 },
 {
  "zone": "Guadalajara",
  "station_id": "185",
  "name": "(GDL-118) C. Antonio de León / C. Garibaldi",
  "latitude": "20.68168",
  "longitude": "-103.38197",
  "address": "(GDL-118) C. Antonio de León / C. Garibaldi*",
  "neighborhood": "Villaseñor",
  "postal_code": "44600",
  "capacity": "15",
  "bikes_available": "0",
  "bikes_unavailable": "0",
  "docks_available": "15",
  "docks_unavailable": "0"
 },
 {
  "zone": "Guadalajara",
  "station_id": "186",
  "name": "(GDL-119) C. Fco Rojas González /C. Garibaldi",
  "latitude": "20.68153",
  "longitude": "-103.3785",
  "address": "(GDL-119) C. Fco. Rojas González / C. Garibaldi *",
  "neighborhood": "Villaseñor",
  "postal_code": "44600",
  "capacity": "11",
  "bikes_available": "1",
  "bikes_unavailable": "0",
  "docks_available": "10",
  "docks_unavailable": "0"
 },
 {
  "zone": "Guadalajara",
  "station_id": "187",
  "name": "(GDL-120) C. Agustín de la Rosa /C. Garibaldi",
  "latitude": "20.68132",
  "longitude": "-103.37537",
  "address": "(GDL-120) C. Agustín de la Rosa / C. Garibaldi *",
  "neighborhood": "Villaseñor",
  "postal_code": "44600",
  "capacity": "11",
  "bikes_available": "0",
  "bikes_unavailable": "0",
  "docks_available": "11",
  "docks_unavailable": "0"
 },
 {
  "zone": "Guadalajara",
  "station_id": "188",
  "name": "(GDL-121) C. Tomás V. Gómez / Av. México",
  "latitude": "20.67914",
  "longitude": "-103.38253",
  "address": "(GDL-121) C. Tomás V. Gómez / Av. México",
  "neighborhood": "Arcos Vallarta",
  "postal_code": "44130",
  "capacity": "19",
  "bikes_available": "0",
  "bikes_unavailable": "1",
  "docks_available": "18",
  "docks_unavailable": "0"
 },
 {
  "zone": "Guadalajara",
  "station_id": "189",
  "name": "(GDL-122) C. Fray Luis DePalacio/ Av. México",
  "latitude": "20.67947",
  "longitude": "-103.37926",
  "address": "(GDL-122) C. Fray Luis DePalacio/ Av. México*",
  "neighborhood": "Santa Teresita",
  "postal_code": "44600",
  "capacity": "15",
  "bikes_available": "0",
  "bikes_unavailable": "0",
  "docks_available": "15",
  "docks_unavailable": "0"
 },
 {
  "zone": "Guadalajara",
  "station_id": "190",
  "name": "(GDL-123) C. Aurelio L. Gallardo / Av. México",
  "latitude": "20.67945",
  "longitude": "-103.376",
  "address": "(GDL-123) C. Aurelio L. Gallardo / Av. México",
  "neighborhood": "Santa Teresita",
  "postal_code": "44600",
  "capacity": "11",
  "bikes_available": "0",
  "bikes_unavailable": "0",
  "docks_available": "11",
  "docks_unavailable": "0"
 },
 {
  "zone": "Guadalajara",
  "station_id": "191",
  "name": "(GDL-124) C. Severo Díaz / C. Justo Sierra",
  "latitude": "20.67741",
  "longitude": "-103.38387",
  "address": "(GDL-124) C. Severo Díaz / C. Justo Sierra",
  "neighborhood": "Arcos Vallarta",
  "postal_code": "44130",
  "capacity": "15",
  "bikes_available": "0",
  "bikes_unavailable": "0",
  "docks_available": "15",
  "docks_unavailable": "0"
 },
 {
  "zone": "Guadalajara",
  "station_id": "192",
  "name": "(GDL-125) C. Pablo Villaseñor / Av. Hidalgo",
  "latitude": "20.67691",
  "longitude": "-103.37993",
  "address": "(GDL-125) C. Pablo Villaseñor / Av. Hidalgo",
  "neighborhood": "Arcos Vallarta",
  "postal_code": "44130",
  "capacity": "15",
  "bikes_available": "0",
  "bikes_unavailable": "0",
  "docks_available": "15",
  "docks_unavailable": "0"
 },
 {
  "zone": "Guadalajara",
  "station_id": "193",
  "name": "(GDL-126) C. Aurelio L. Gallardo / Av Hidalgo",
  "latitude": "20.67647",
  "longitude": "-103.37606",
  "address": "(GDL-126) C. Aurelio L. Gallardo / Av. Hidalgo",
  "neighborhood": "Santa Teresita",
  "postal_code": "44600",
  "capacity": "11",
  "bikes_available": "0",
  "bikes_unavailable": "0",
  "docks_available": "11",
  "docks_unavailable": "0"
 },
 {
  "zone": "Guadalajara",
  "station_id": "194",
  "name": "(GDL-127) Av. Vallarta / Av. de Los Arcos",
  "latitude": "20.67438",
  "longitude": "-103.38488",
  "address": "(GDL-127) Av. Vallarta / Av. de Los Arcos",
  "neighborhood": "Vallarta San Jorge",
  "postal_code": "44690",
  "capacity": "19",
  "bikes_available": "0",
  "bikes_unavailable": "0",
  "docks_available": "19",
  "docks_unavailable": "0"
 },
 {
  "zone": "Guadalajara",
  "station_id": "195",
  "name": "(GDL-128) Av. Morelos / C. Emilio Castelar",
  "latitude": "20.67554",
  "longitude": "-103.38409",
  "address": "(GDL-128) Av José María Morelos / C. Emilio Castelar",
  "neighborhood": "Arcos Vallarta",
  "postal_code": "44130",
  "capacity": "23",
  "bikes_available": "0",
  "bikes_unavailable": "0",
  "docks_available": "23",
  "docks_unavailable": "0"
 },
 {
  "zone": "Guadalajara",
  "station_id": "196",
  "name": "(GDL-129) C. Lope de Vega / Av. Vallarta",
  "latitude": "20.67455",
  "longitude": "-103.37998",
  "address": "(GDL-129) C. Lope de Vega / Av. Ignacio L. Vallarta",
  "neighborhood": "Arcos Vallarta",
  "postal_code": "44130",
  "capacity": "23",
  "bikes_available": "0",
  "bikes_unavailable": "1",
  "docks_available": "22",
  "docks_unavailable": "0"
 },
 {
  "zone": "Guadalajara",
  "station_id": "197",
  "name": "(GDL-130) C. J. Ruíz de Alarcón / Av Vallarta",
  "latitude": "20.67448",
  "longitude": "-103.37618",
  "address": "(GDL-130) C. J. Ruíz de Alarcón / Av. Vallarta",
  "neighborhood": "Americana",
  "postal_code": "44160",
  "capacity": "15",
  "bikes_available": "0",
  "bikes_unavailable": "0",
  "docks_available": "15",
  "docks_unavailable": "0"
 },
 {
  "zone": "Guadalajara",
  "station_id": "198",
  "name": "(GDL-131) C. Emilio Castelar / Av. La Paz",
  "latitude": "20.67206",
  "longitude": "-103.384",
  "address": "(GDL-131) C. Emilio Castelar / Av. La Paz",
  "neighborhood": "Arcos Vallarta",
  "postal_code": "44130",
  "capacity": "19",
  "bikes_available": "0",
  "bikes_unavailable": "0",
  "docks_available": "19",
  "docks_unavailable": "0"
 },
 {
  "zone": "Guadalajara",
  "station_id": "199",
  "name": "(GDL-132) C. Lope de Vega / Av. La Paz",
  "latitude": "20.67207",
  "longitude": "-103.37997",
  "address": "(GDL-132) C. Lope de Vega / Av. La Paz",
  "neighborhood": "Arcos Vallarta",
  "postal_code": "44130",
  "capacity": "15",
  "bikes_available": "0",
  "bikes_unavailable": "0",
  "docks_available": "15",
  "docks_unavailable": "0"
 },
 {
  "zone": "Guadalajara",
  "station_id": "200",
  "name": "(GDL-133) C. J. Ruíz de Alarcón / Av. La Paz",
  "latitude": "20.67189",
  "longitude": "-103.37608",
  "address": "(GDL-133) C. J. Ruíz de Alarcón / Av. La Paz",
  "neighborhood": "Americana",
  "postal_code": "44160",
  "capacity": "15",
  "bikes_available": "0",
  "bikes_unavailable": "0",
  "docks_available": "15",
  "docks_unavailable": "0"
 },
 {
  "zone": "Guadalajara",
  "station_id": "201",
  "name": "(GDL-134) C. Agustín Yáñez / C. Fco Ugarte",
  "latitude": "20.67016",
  "longitude": "-103.38448",
  "address": "(GDL-134) C. Agustín Yáñez / C. Fco. Ugarte",
  "neighborhood": "Vallarta San Jorge",
  "postal_code": "44690",
  "capacity": "19",
  "bikes_available": "0",
  "bikes_unavailable": "0",
  "docks_available": "19",
  "docks_unavailable": "0"
 },
 {
  "zone": "Guadalajara",
  "station_id": "202",
  "name": "(GDL-135) C. Victoriano Agüeros / Av. Unión",
  "latitude": "20.66868",
  "longitude": "-103.3731",
  "address": "(GDL-135) C. Victoriano Agüeros / Av. Unión*",
  "neighborhood": "Obrera Centro",
  "postal_code": "44140",
  "capacity": "11",
  "bikes_available": "2",
  "bikes_unavailable": "0",
  "docks_available": "9",
  "docks_unavailable": "0"
 },
 {
  "zone": "Guadalajara",
  "station_id": "203",
  "name": "(GDL-136) C. Lope de Vega/C. Efraín Glez Luna",
  "latitude": "20.66927",
  "longitude": "-103.37983",
  "address": "(GDL-136) C. Lope de Vega / C. Efraín Glez. Luna *",
  "neighborhood": "Arcos Vallarta",
  "postal_code": "44130",
  "capacity": "19",
  "bikes_available": "0",
  "bikes_unavailable": "0",
  "docks_available": "19",
  "docks_unavailable": "0"
 },
 {
  "zone": "Guadalajara",
  "station_id": "204",
  "name": "(GDL-137) C. Ruíz de Alarcón/C. Efraín G Luna",
  "latitude": "20.66957",
  "longitude": "-103.37623",
  "address": "(GDL-137) C. Ruíz de Alarcón / C. Efraín Glez. Luna",
  "neighborhood": "Lafayette",
  "postal_code": "44150",
  "capacity": "11",
  "bikes_available": "0",
  "bikes_unavailable": "0",
  "docks_available": "11",
  "docks_unavailable": "0"
 },
 {
  "zone": "Guadalajara",
  "station_id": "205",
  "name": "(GDL-138) C. de la Nebulosa / C. Placeres",
  "latitude": "20.66557",
  "longitude": "-103.39134",
  "address": "(GDL-138) C. de la Nebulosa / C. Placeres*",
  "neighborhood": "Jardines del Bosque Centro",
  "postal_code": "44520",
  "capacity": "15",
  "bikes_available": "0",
  "bikes_unavailable": "0",
  "docks_available": "15",
  "docks_unavailable": "0"
 },
 {
  "zone": "Guadalajara",
  "station_id": "206",
  "name": "(GDL-139) C. Firmamento / Av. Niños Héroes",
  "latitude": "20.66667",
  "longitude": "-103.38863",
  "address": "(GDL-139) C. Firmamento / Av. Niños Héroes",
  "neighborhood": "Jardines del Bosque Centro",
  "postal_code": "44520",
  "capacity": "15",
  "bikes_available": "1",
  "bikes_unavailable": "0",
  "docks_available": "14",
  "docks_unavailable": "0"
 },
 {
  "zone": "Guadalajara",
  "station_id": "207",
  "name": "(GDL-140) C. Constelación / Av. de los Arcos",
  "latitude": "20.66816",
  "longitude": "-103.38488",
  "address": "(GDL-140) C. Constelación / Av. de los Arcos",
  "neighborhood": "Jardines del Bosque Centro",
  "postal_code": "44520",
  "capacity": "15",
  "bikes_available": "1",
  "bikes_unavailable": "0",
  "docks_available": "14",
  "docks_unavailable": "0"
 },
 {
  "zone": "Guadalajara",
  "station_id": "208",
  "name": "(GDL-141) C. Ruíz de Alarcón/C. Agustín Yáñez",
  "latitude": "20.66702",
  "longitude": "-103.37621",
  "address": "(GDL-141) C. Ruíz de Alarcón / C. Agustín Yáñez",
  "neighborhood": "Arcos Vallarta",
  "postal_code": "44130",
  "capacity": "15",
  "bikes_available": "0",
  "bikes_unavailable": "0",
  "docks_available": "15",
  "docks_unavailable": "0"
 },
 {
  "zone": "Guadalajara",
  "station_id": "209",
  "name": "(GDL-142) C. De la Nebulosa / C. Firmamento",
  "latitude": "20.6647",
  "longitude": "-103.38855",
  "address": "(GDL-142) C. De la Nebulosa / C. Firmamento",
  "neighborhood": "Jardines del Bosque Norte",
  "postal_code": "44520",
  "capacity": "15",
  "bikes_available": "0",
  "bikes_unavailable": "0",
  "docks_available": "15",
  "docks_unavailable": "0"
 },
 {
  "zone": "Guadalajara",
  "station_id": "210",
  "name": "(GDL-143) C. Eclipse / Av. de Los Arcos",
  "latitude": "20.6625",
  "longitude": "-103.38407",
  "address": "(GDL-143) C. Eclipse / Av. de Los Arcos",
  "neighborhood": "Jardines del Bosque Norte",
  "postal_code": "44520",
  "capacity": "23",
  "bikes_available": "2",
  "bikes_unavailable": "2",
  "docks_available": "19",
  "docks_unavailable": "0"
 },
 {
  "zone": "Guadalajara",
  "station_id": "211",
  "name": "(GDL-144) C. Primo Feliciano / C. San Gabriel",
  "latitude": "20.669931",
  "longitude": "-103.394307",
  "address": "(GDL-144) C. Primo Feliciano / C. San Gabriel*",
  "neighborhood": "Residencial Chapalita",
  "postal_code": "44500",
  "capacity": "11",
  "bikes_available": "0",
  "bikes_unavailable": "1",
  "docks_available": "10",
  "docks_unavailable": "0"
 },
 {
  "zone": "Guadalajara",
  "station_id": "212",
  "name": "(GDL-145) C. San Miguel / Av. San Francisco",
  "latitude": "20.66736",
  "longitude": "-103.3947",
  "address": "(GDL-145) C. San Miguel / Av. San Francisco",
  "neighborhood": "Arcos Sur",
  "postal_code": "44500",
  "capacity": "19",
  "bikes_available": "0",
  "bikes_unavailable": "0",
  "docks_available": "19",
  "docks_unavailable": "0"
 },
 {
  "zone": "Guadalajara",
  "station_id": "213",
  "name": "(GDL-146) Av. Guadalupe / C. Boturini",
  "latitude": "20.6662882",
  "longitude": "-103.3988986",
  "address": "(GDL-146) Av. Guadalupe / C. Boturini",
  "neighborhood": "Campo de Polo Chapalita",
  "postal_code": "44500",
  "capacity": "11",
  "bikes_available": "0",
  "bikes_unavailable": "0",
  "docks_available": "11",
  "docks_unavailable": "0"
 },
 {
  "zone": "Guadalajara",
  "station_id": "214",
  "name": "(GDL-147) Calz. Lázaro Cárdenas/Av. Guadalupe",
  "latitude": "20.66623",
  "longitude": "-103.39654",
  "address": "(GDL-147) Calz. Lázaro Cárdenas / Av. Guadalupe*",
  "neighborhood": "Jardines de los Arcos",
  "postal_code": "44500",
  "capacity": "15",
  "bikes_available": "0",
  "bikes_unavailable": "0",
  "docks_available": "15",
  "docks_unavailable": "0"
 },
 {
  "zone": "Guadalajara",
  "station_id": "215",
  "name": "(GDL-148) C. San Rafael / Av. Tepeyac",
  "latitude": "20.66501",
  "longitude": "-103.39788",
  "address": "(GDL-148) C. San Rafael / Av. Tepeyac *",
  "neighborhood": "Chapalita",
  "postal_code": "44500",
  "capacity": "15",
  "bikes_available": "1",
  "bikes_unavailable": "1",
  "docks_available": "13",
  "docks_unavailable": "0"
 },
 {
  "zone": "Guadalajara",
  "station_id": "216",
  "name": "(GDL-149) Calz. Lázaro Cárdenas/López Mateos",
  "latitude": "20.66511",
  "longitude": "-103.39388",
  "address": "(GDL-149) Calz. Lázaro Cárdenas/ Av. López Mateos",
  "neighborhood": "Vallarta Sur",
  "postal_code": "44500",
  "capacity": "15",
  "bikes_available": "0",
  "bikes_unavailable": "0",
  "docks_available": "15",
  "docks_unavailable": "0"
 },
 {
  "zone": "Guadalajara",
  "station_id": "217",
  "name": "(GDL-150) C. Asunción / Av. Chapalita",
  "latitude": "20.661387",
  "longitude": "-103.392533",
  "address": "(GDL-150) C. Asunción / Av. Chapalita*",
  "neighborhood": "Chapalita",
  "postal_code": "44500",
  "capacity": "11",
  "bikes_available": "2",
  "bikes_unavailable": "0",
  "docks_available": "9",
  "docks_unavailable": "0"
 },
 {
  "zone": "Guadalajara",
  "station_id": "218",
  "name": "(GDL-151) C. Capuchinas / Av. Chapalita",
  "latitude": "20.66",
  "longitude": "-103.39496",
  "address": "(GDL-151) C. Capuchinas / Av. Chapalita*",
  "neighborhood": "Chapalita",
  "postal_code": "44500",
  "capacity": "15",
  "bikes_available": "0",
  "bikes_unavailable": "0",
  "docks_available": "15",
  "docks_unavailable": "0"
 },
 {
  "zone": "Guadalajara",
  "station_id": "219",
  "name": "(GDL-152) Parque de las Estrellas/C. Orión",
  "latitude": "20.65931",
  "longitude": "-103.38884",
  "address": "(GDL-152) C. Parque de las Estrellas / C. Orión",
  "neighborhood": "Jardines del Bosque Norte",
  "postal_code": "44520",
  "capacity": "19",
  "bikes_available": "1",
  "bikes_unavailable": "1",
  "docks_available": "17",
  "docks_unavailable": "0"
 },
 {
  "zone": "Guadalajara",
  "station_id": "220",
  "name": "(GDL-153) C. Crepúsculo / Av. Tonantzin",
  "latitude": "20.65846",
  "longitude": "-103.39092",
  "address": "(GDL-153) C. Crepúsculo / Av. Tonantzin",
  "neighborhood": "Jardines del Bosque Norte",
  "postal_code": "44520",
  "capacity": "11",
  "bikes_available": "8",
  "bikes_unavailable": "0",
  "docks_available": "3",
  "docks_unavailable": "0"
 },
 {
  "zone": "Guadalajara",
  "station_id": "221",
  "name": "(GDL-154) C. Capuchinas / Av. Las Rosas",
  "latitude": "20.65761",
  "longitude": "-103.39363",
  "address": "(GDL-154) C. Capuchinas / Av. Las Rosas",
  "neighborhood": "Residencial Del Bosque",
  "postal_code": "44510",
  "capacity": "15",
  "bikes_available": "4",
  "bikes_unavailable": "0",
  "docks_available": "11",
  "docks_unavailable": "0"
 },
 {
  "zone": "Guadalajara",
  "station_id": "222",
  "name": "(GDL-155) Parque de las Estrellas/Mariano Ote",
  "latitude": "20.65712973",
  "longitude": "-103.3883797",
  "address": "(GDL-155) Parque de las Estrellas / Av. Mariano Otero *",
  "neighborhood": "Jardines de Plaza Del Sol",
  "postal_code": "44520",
  "capacity": "19",
  "bikes_available": "0",
  "bikes_unavailable": "0",
  "docks_available": "19",
  "docks_unavailable": "0"
 },
 {
  "zone": "Guadalajara",
  "station_id": "224",
  "name": "(GDL-157) Av. Mariano Otero / Av. Las Rosas",
  "latitude": "20.65454",
  "longitude": "-103.39162",
  "address": "(GDL-157) Av. Mariano Otero / Av. Las Rosas",
  "neighborhood": "Jardines de Plaza Del Sol",
  "postal_code": "44510",
  "capacity": "15",
  "bikes_available": "5",
  "bikes_unavailable": "0",
  "docks_available": "10",
  "docks_unavailable": "0"
 },
 {
  "zone": "Guadalajara",
  "station_id": "225",
  "name": "(GDL-158) Av. Faro / Av. Las Rosas",
  "latitude": "20.65158",
  "longitude": "-103.38957",
  "address": "(GDL-158) Av. Faro / Av. Las Rosas",
  "neighborhood": "Verde Valle",
  "postal_code": "44550",
  "capacity": "15",
  "bikes_available": "8",
  "bikes_unavailable": "1",
  "docks_available": "6",
  "docks_unavailable": "0"
 },
 {
  "zone": "Guadalajara",
  "station_id": "226",
  "name": "(GDL-159) C. Guadalupe Victoria /Del Ejercito",
  "latitude": "20.66468",
  "longitude": "-103.33357",
  "address": "(GDL-159) C. Guadalupe Victoria / C. Del Ejército *",
  "neighborhood": "Obrera",
  "postal_code": "44420",
  "capacity": "19",
  "bikes_available": "18",
  "bikes_unavailable": "1",
  "docks_available": "0",
  "docks_unavailable": "0"
 },
 {
  "zone": "Guadalajara",
  "station_id": "227",
  "name": "(GDL-160) C.Silverio Garcia/Blvrd. García Ba*",
  "latitude": "20.66114",
  "longitude": "-103.3315",
  "address": "(GDL-160) C. Silverio García / Blvr. García Barragán*",
  "neighborhood": "Valentín Gómez Farías",
  "postal_code": "44420",
  "capacity": "11",
  "bikes_available": "10",
  "bikes_unavailable": "1",
  "docks_available": "0",
  "docks_unavailable": "0"
 },
 {
  "zone": "Guadalajara",
  "station_id": "228",
  "name": "(GDL-161) C. Rio Usumacinta/Blvrd García Barr",
  "latitude": "20.65925",
  "longitude": "-103.33055",
  "address": "(GDL-161) C. Río Usumacinta / Blvr. García Barragán *",
  "neighborhood": "González Gallo",
  "postal_code": "44430",
  "capacity": "19",
  "bikes_available": "17",
  "bikes_unavailable": "2",
  "docks_available": "0",
  "docks_unavailable": "0"
 },
 {
  "zone": "Guadalajara",
  "station_id": "229",
  "name": "(GDL-162) C. Rio Tuxpan / C. Salvador Lopez C",
  "latitude": "20.65721",
  "longitude": "-103.33046",
  "address": "(GDL-162) C. Río Tuxpan / C. Salvador López Chávez*",
  "neighborhood": "González Gallo",
  "postal_code": "44430",
  "capacity": "19",
  "bikes_available": "19",
  "bikes_unavailable": "0",
  "docks_available": "0",
  "docks_unavailable": "0"
 },
 {
  "zone": "Guadalajara",
  "station_id": "230",
  "name": "(GDL-163) C. Corregidora / Blvrd. García B.",
  "latitude": "20.657817",
  "longitude": "-103.32898",
  "address": "(GDL-163) C. Corregidora / Blvr. García Barragán *",
  "neighborhood": "Obrera",
  "postal_code": "44420",
  "capacity": "15",
  "bikes_available": "15",
  "bikes_unavailable": "0",
  "docks_available": "0",
  "docks_unavailable": "0"
 },
 {
  "zone": "Guadalajara",
  "station_id": "231",
  "name": "(GDL-164) Av. Olímpica /C. José Rolon",
  "latitude": "20.655",
  "longitude": "-103.32186",
  "address": "(GDL-164) Calz. Olímpica / C. José Rolón *",
  "neighborhood": "Olímpica",
  "postal_code": "44430",
  "capacity": "15",
  "bikes_available": "9",
  "bikes_unavailable": "1",
  "docks_available": "5",
  "docks_unavailable": "0"
 },
 {
  "zone": "Guadalajara",
  "station_id": "232",
  "name": "(GDL-165) C. Rio Panuco/ Blvrd. García B.",
  "latitude": "20.65251",
  "longitude": "-103.32553",
  "address": "(GDL-165) C. Río Panuco/  Blvr. García Barragán",
  "neighborhood": "Atlas",
  "postal_code": "44870",
  "capacity": "19",
  "bikes_available": "4",
  "bikes_unavailable": "1",
  "docks_available": "14",
  "docks_unavailable": "0"
 },
 {
  "zone": "Guadalajara",
  "station_id": "233",
  "name": "(GDL-166) C. Rio Principal / Blvrd. García B.",
  "latitude": "20.65475",
  "longitude": "-103.32719",
  "address": "(GDL-166) C. Río Principal / Blvr. García Barragán *",
  "neighborhood": "Olímpica",
  "postal_code": "44430",
  "capacity": "19",
  "bikes_available": "12",
  "bikes_unavailable": "1",
  "docks_available": "6",
  "docks_unavailable": "0"
 },
 {
  "zone": "Guadalajara",
  "station_id": "234",
  "name": "(GDL-167) C. Rio San Juan de Dios/Blvrd. Garc",
  "latitude": "20.64962",
  "longitude": "-103.32356",
  "address": "(GDL-167) C. Río San Juan de Dios/ Blvr. García Barragán",
  "neighborhood": "Atlas",
  "postal_code": "44870",
  "capacity": "15",
  "bikes_available": "14",
  "bikes_unavailable": "1",
  "docks_available": "0",
  "docks_unavailable": "0"
 },
 {
  "zone": "Guadalajara",
  "station_id": "235",
  "name": "(GDL-168) Av. Rio Nilo / C. Ramón Pacheco",
  "latitude": "20.64874",
  "longitude": "-103.31939",
  "address": "(GDL-168) Av. Río Nilo / C. Ramón Pacheco *",
  "neighborhood": "Ciudad Universitaria",
  "postal_code": "44840",
  "capacity": "19",
  "bikes_available": "5",
  "bikes_unavailable": "0",
  "docks_available": "14",
  "docks_unavailable": "0"
 },
 {
  "zone": "Guadalajara",
  "station_id": "236",
  "name": "(GDL-169) Blvrd. García Barragán/ C. Rio Zapo",
  "latitude": "20.64707",
  "longitude": "-103.32147",
  "address": "(GDL-169) Blvr. García Barragán / C. Río Zapotlanejo *",
  "neighborhood": "Atlas",
  "postal_code": "44870",
  "capacity": "19",
  "bikes_available": "19",
  "bikes_unavailable": "0",
  "docks_available": "0",
  "docks_unavailable": "0"
 },
 {
  "zone": "Guadalajara",
  "station_id": "237",
  "name": "(GDL-170)  C. Relojeros/ C. Chamizal",
  "latitude": "20.64698",
  "longitude": "-103.30619",
  "address": "(GDL-170) C. Relojeros / C. Chamizal *",
  "neighborhood": "Jardines de La Paz",
  "postal_code": "44860",
  "capacity": "15",
  "bikes_available": "8",
  "bikes_unavailable": "0",
  "docks_available": "7",
  "docks_unavailable": "0"
 },
 {
  "zone": "Guadalajara",
  "station_id": "238",
  "name": "(GDL-171) C. Maquinistas / C. San Rafael",
  "latitude": "20.6461",
  "longitude": "-103.3102",
  "address": "(GDL-171) C. Maquinistas / C. San Rafael *",
  "neighborhood": "La Paz",
  "postal_code": "44860",
  "capacity": "19",
  "bikes_available": "10",
  "bikes_unavailable": "0",
  "docks_available": "9",
  "docks_unavailable": "0"
 },
 {
  "zone": "Guadalajara",
  "station_id": "239",
  "name": "(GDL-172) C. Chamizal / Av. Rio Nilo",
  "latitude": "20.64434",
  "longitude": "-103.30678",
  "address": "(GDL-172) C. Chamizal / Av. Río Nilo *",
  "neighborhood": "Jardines de La Paz",
  "postal_code": "44860",
  "capacity": "15",
  "bikes_available": "3",
  "bikes_unavailable": "0",
  "docks_available": "12",
  "docks_unavailable": "0"
 },
 {
  "zone": "Guadalajara",
  "station_id": "240",
  "name": "(GDL-173) C. Caballerango / C. Caporales",
  "latitude": "20.64504",
  "longitude": "-103.30518",
  "address": "(GDL-173) C. Caballerango / C. Caporales *",
  "neighborhood": "Jardines de La Paz",
  "postal_code": "44860",
  "capacity": "19",
  "bikes_available": "4",
  "bikes_unavailable": "0",
  "docks_available": "15",
  "docks_unavailable": "0"
 },
 {
  "zone": "Guadalajara",
  "station_id": "241",
  "name": "(GDL-174) C. Juan de Zumárraga / Av. Tepeyac",
  "latitude": "20.6641",
  "longitude": "-103.4003",
  "address": "(GDL-174) C. Juan de Zumárraga / Av. Tepeyac",
  "neighborhood": "Chapalita",
  "postal_code": "44500",
  "capacity": "11",
  "bikes_available": "5",
  "bikes_unavailable": "0",
  "docks_available": "6",
  "docks_unavailable": "0"
 },
 {
  "zone": "Guadalajara",
  "station_id": "242",
  "name": "(GDL-175) C. Ermita / C. San Uriel",
  "latitude": "20.66234072",
  "longitude": "-103.3981344",
  "address": "(GDL-175) C. Ermita / C. San Uriel",
  "neighborhood": "Residencial Chapalita",
  "postal_code": "44500",
  "capacity": "11",
  "bikes_available": "1",
  "bikes_unavailable": "0",
  "docks_available": "10",
  "docks_unavailable": "0"
 },
 {
  "zone": "Guadalajara",
  "station_id": "243",
  "name": "(GDL-176) C. San Bonifacio/ Paseo Benedictino",
  "latitude": "20.67276201",
  "longitude": "-103.3976249",
  "address": "(GDL-176) C. San Bonifacio / Paseo de los Benedictinos",
  "neighborhood": "Residencial Chapalita",
  "postal_code": "44500",
  "capacity": "11",
  "bikes_available": "2",
  "bikes_unavailable": "0",
  "docks_available": "9",
  "docks_unavailable": "0"
 },
 {
  "zone": "Guadalajara",
  "station_id": "244",
  "name": "(GDL-177) C. Fray Fco Frejes / C. Fco Zarco",
  "latitude": "20.68669",
  "longitude": "-103.37657",
  "address": "(GDL-177) C. Fray Fco. Frejes / C. Fco. Zarco *",
  "neighborhood": "Santa Teresita",
  "postal_code": "44600",
  "capacity": "15",
  "bikes_available": "0",
  "bikes_unavailable": "0",
  "docks_available": "15",
  "docks_unavailable": "0"
 },
 {
  "zone": "Guadalajara",
  "station_id": "246",
  "name": "(GDL-178) C Salvador Quevedo/C López Portillo",
  "latitude": "20.685108",
  "longitude": "-103.333746",
  "address": "(GDL-178) C. Salvador Quevedo / C. López Portillo *",
  "neighborhood": "La Natividad",
  "postal_code": "44360",
  "capacity": "15",
  "bikes_available": "14",
  "bikes_unavailable": "0",
  "docks_available": "1",
  "docks_unavailable": "0"
 },
 {
  "zone": "Guadalajara",
  "station_id": "247",
  "name": "(GDL-179) C. Monte Cáucaso / C. Sierra Nevada",
  "latitude": "20.68795",
  "longitude": "-103.33343",
  "address": "(GDL-179) C. Monte Cáucaso / C. Sierra Nevada *",
  "neighborhood": "Independencia Oriente",
  "postal_code": "44340",
  "capacity": "23",
  "bikes_available": "20",
  "bikes_unavailable": "2",
  "docks_available": "1",
  "docks_unavailable": "0"
 },
 {
  "zone": "Guadalajara",
  "station_id": "248",
  "name": "(GDL-180) C. Montes Pirineos/Salvador Quevedo",
  "latitude": "20.68692",
  "longitude": "-103.33467",
  "address": "(GDL-180) C. Montes Pirineos / C. Salvador Quevedo*",
  "neighborhood": "Independencia Oriente",
  "postal_code": "44340",
  "capacity": "11",
  "bikes_available": "11",
  "bikes_unavailable": "0",
  "docks_available": "0",
  "docks_unavailable": "0"
 },
 {
  "zone": "Guadalajara",
  "station_id": "249",
  "name": "(GDL-181) C.Ignacio Rmrz / Av Plan de San Lui",
  "latitude": "20.69705",
  "longitude": "-103.36322",
  "address": "(GDL-181) C.Ignacio Ramírez / Av. Plan de San Luis*",
  "neighborhood": "San Bernardo",
  "postal_code": "44260",
  "capacity": "15",
  "bikes_available": "14",
  "bikes_unavailable": "1",
  "docks_available": "0",
  "docks_unavailable": "0"
 },
 {
  "zone": "Guadalajara",
  "station_id": "253",
  "name": "(GDL-156) C. Duque de Rivas/ C. López Cotilla",
  "latitude": "20.6731682",
  "longitude": "-103.3826893",
  "address": "(GDL-156) C. Duque de Rivas / C. López Cotilla *",
  "neighborhood": "Arcos Vallarta",
  "postal_code": "44130",
  "capacity": "15",
  "bikes_available": "0",
  "bikes_unavailable": "0",
  "docks_available": "15",
  "docks_unavailable": "0"
 },
 {
  "zone": "Guadalajara",
  "station_id": "254",
  "name": "(GDL-020) C. General Coronado / C.Juan Manuel",
  "latitude": "20.67848",
  "longitude": "-103.365103",
  "address": "(GDL-020) C. General Coronado / C. Juan Manuel",
  "neighborhood": "Guadalajara Centro",
  "postal_code": "44100",
  "capacity": "15",
  "bikes_available": "3",
  "bikes_unavailable": "1",
  "docks_available": "11",
  "docks_unavailable": "0"
 },
 {
  "zone": "Guadalajara",
  "station_id": "255",
  "name": "(GDL-182) C. General Coronado / C. Manuel Acu",
  "latitude": "20.6841645",
  "longitude": "-103.3648293",
  "address": "(GDL-182) C. General Coronado / C. Manuel Acuña*",
  "neighborhood": "Villaseñor",
  "postal_code": "44600",
  "capacity": "15",
  "bikes_available": "9",
  "bikes_unavailable": "0",
  "docks_available": "6",
  "docks_unavailable": "0"
 },
 {
  "zone": "Guadalajara",
  "station_id": "256",
  "name": "(GDL-183) Calz. Independencia / Av. Niños Hér",
  "latitude": "20.6639862",
  "longitude": "-103.3480775",
  "address": "(GDL-183) Calz. Independencia / Av. Niños Héroes*",
  "neighborhood": "Mexicaltzingo",
  "postal_code": "44180",
  "capacity": "19",
  "bikes_available": "17",
  "bikes_unavailable": "0",
  "docks_available": "2",
  "docks_unavailable": "0"
 },
 {
  "zone": "Guadalajara",
  "station_id": "257",
  "name": "(GDL-184) Ingreso Cucei / Revolución",
  "latitude": "20.6595903",
  "longitude": "-103.324471",
  "address": "(GDL-184) Ingreso Cucei / Revolución",
  "neighborhood": "El Periodista",
  "postal_code": "44430",
  "capacity": "19",
  "bikes_available": "4",
  "bikes_unavailable": "0",
  "docks_available": "15",
  "docks_unavailable": "0"
 },
 {
  "zone": "Guadalajara",
  "station_id": "258",
  "name": "(GDL-185) Dr. Silverio García /Av. Revolución",
  "latitude": "20.66318",
  "longitude": "-103.32942",
  "address": "(GDL-185) Dr. Silverio García /Av. Revolución",
  "neighborhood": "Revolución",
  "postal_code": "44400",
  "capacity": "23",
  "bikes_available": "18",
  "bikes_unavailable": "1",
  "docks_available": "4",
  "docks_unavailable": "0"
 },
 {
  "zone": "Guadalajara",
  "station_id": "259",
  "name": "(GDL-186) C. Argentina / C. Francia",
  "latitude": "20.66429",
  "longitude": "-103.3628",
  "address": "(GDL-186) C. Argentina / C. Francia",
  "neighborhood": "Moderna",
  "postal_code": "44190",
  "capacity": "15",
  "bikes_available": "7",
  "bikes_unavailable": "0",
  "docks_available": "8",
  "docks_unavailable": "0"
 },
 {
  "zone": "Guadalajara",
  "station_id": "260",
  "name": "(GDL-187) Av. 16 de Septiembre / C. Priscilia",
  "latitude": "20.67284",
  "longitude": "-103.34718",
  "address": "(GDL-187) Av. 16 de Septiembre / C. Prisciliano Sánchez",
  "neighborhood": "Guadalajara Centro",
  "postal_code": "44100",
  "capacity": "15",
  "bikes_available": "6",
  "bikes_unavailable": "0",
  "docks_available": "9",
  "docks_unavailable": "0"
 },
 {
  "zone": "Guadalajara",
  "station_id": "261",
  "name": "(GDL-188) Av. de la Presa / Av. Manuel A. Cam",
  "latitude": "20.70928",
  "longitude": "-103.37015",
  "address": "(GDL-188) Av. de la Presa / Av. Manuel A. Camacho",
  "neighborhood": "Jardines del Country",
  "postal_code": "44210",
  "capacity": "15",
  "bikes_available": "12",
  "bikes_unavailable": "1",
  "docks_available": "2",
  "docks_unavailable": "0"
 },
 {
  "zone": "Guadalajara",
  "station_id": "262",
  "name": "(GDL-189) C. 5 de Mayo/ Av. Revolución",
  "latitude": "20.6692",
  "longitude": "-103.34116",
  "address": "(GDL-189) C. 5 de Mayo/ Av. Revolución",
  "neighborhood": "Analco",
  "postal_code": "44450",
  "capacity": "15",
  "bikes_available": "12",
  "bikes_unavailable": "0",
  "docks_available": "3",
  "docks_unavailable": "0"
 },
 {
  "zone": "Guadalajara",
  "station_id": "263",
  "name": "(GDL-190) C. Anahuac / Av. Revolución",
  "latitude": "20.6708",
  "longitude": "-103.34385",
  "address": "(GDL-190) C. Anahuac / Av. Revolución",
  "neighborhood": "La Perla",
  "postal_code": "44360",
  "capacity": "31",
  "bikes_available": "30",
  "bikes_unavailable": "0",
  "docks_available": "1",
  "docks_unavailable": "0"
 },
 {
  "zone": "Guadalajara",
  "station_id": "264",
  "name": "(GDL-191) Plaza de los Mariachis",
  "latitude": "20.6744",
  "longitude": "-103.34123",
  "address": "(GDL-191) Plaza de los Mariachis",
  "neighborhood": "San Juan de Dios",
  "postal_code": "44360",
  "capacity": "23",
  "bikes_available": "22",
  "bikes_unavailable": "1",
  "docks_available": "0",
  "docks_unavailable": "0"
 },
 {
  "zone": "Guadalajara",
  "station_id": "265",
  "name": "(GDL-192) Calle A1 / Av. Manuel A. Camacho",
  "latitude": "20.70656",
  "longitude": "-103.36564",
  "address": "(GDL-192) Calle A1 / Av. Manuel A. Camacho",
  "neighborhood": "Jardines del Country",
  "postal_code": "44210",
  "capacity": "15",
  "bikes_available": "9",
  "bikes_unavailable": "0",
  "docks_available": "6",
  "docks_unavailable": "0"
 },
 {
  "zone": "Guadalajara",
  "station_id": "266",
  "name": "(GDL-193) C. Hawai / C. Nicolás Romero",
  "latitude": "20.70211",
  "longitude": "-103.35996",
  "address": "(GDL-193) C. Hawai / C. Nicolás Romero",
  "neighborhood": "Mezquitan",
  "postal_code": "44260",
  "capacity": "15",
  "bikes_available": "7",
  "bikes_unavailable": "1",
  "docks_available": "7",
  "docks_unavailable": "0"
 },
 {
  "zone": "Guadalajara",
  "station_id": "267",
  "name": "(GDL-194) Av. Revolución / C. Manuel López Ve",
  "latitude": "20.65048",
  "longitude": "-103.30999",
  "address": "(GDL-194) Av. Revolución / C. Manuel López Velarde*",
  "neighborhood": "Jardines de La Paz",
  "postal_code": "44860",
  "capacity": "15",
  "bikes_available": "12",
  "bikes_unavailable": "0",
  "docks_available": "3",
  "docks_unavailable": "0"
 },
 {
  "zone": "Guadalajara",
  "station_id": "268",
  "name": "(GDL-195) C. Ramón Corona / Av. Juárez",
  "latitude": "20.67529",
  "longitude": "-103.34656",
  "address": "(GDL-195) C. Ramón Corona / Av. Juárez",
  "neighborhood": "Guadalajara Centro",
  "postal_code": "44100",
  "capacity": "23",
  "bikes_available": "2",
  "bikes_unavailable": "1",
  "docks_available": "20",
  "docks_unavailable": "0"
 },
 {
  "zone": "Guadalajara",
  "station_id": "269",
  "name": "(GDL-196) C. Esmeralda / C. Manuel Acuña",
  "latitude": "20.68361",
  "longitude": "-103.33756",
  "address": "(GDL-196) C. Esmeralda / C. Manuel Acuña",
  "neighborhood": "El Retiro",
  "postal_code": "44280",
  "capacity": "23",
  "bikes_available": "21",
  "bikes_unavailable": "2",
  "docks_available": "0",
  "docks_unavailable": "0"
 },
 {
  "zone": "Guadalajara",
  "station_id": "270",
  "name": "(GDL-197) Av. Río Nilo / Av. Revolución",
  "latitude": "20.64517",
  "longitude": "-103.30313",
  "address": "(GDL-197) Av. Río Nilo / Av. Revolución*",
  "neighborhood": "Jardines de La Paz",
  "postal_code": "44860",
  "capacity": "15",
  "bikes_available": "10",
  "bikes_unavailable": "0",
  "docks_available": "5",
  "docks_unavailable": "0"
 },
 {
  "zone": "Guadalajara",
  "station_id": "271",
  "name": "(GDL-198) Av. Alcalde / C. Hospital",
  "latitude": "20.68504",
  "longitude": "-103.34796",
  "address": "(GDL-198) Av. Alcalde / C. Hospital",
  "neighborhood": "Guadalajara Centro",
  "postal_code": "44100",
  "capacity": "31",
  "bikes_available": "28",
  "bikes_unavailable": "2",
  "docks_available": "1",
  "docks_unavailable": "0"
 },
 {
  "zone": "Guadalajara",
  "station_id": "272",
  "name": "(GDL-199) C. Jesús García/Av. Alcalde",
  "latitude": "20.6891",
  "longitude": "-103.34806",
  "address": "(GDL-199) C. Jesús García/Av. Alcalde",
  "neighborhood": "Colinas de La Normal",
  "postal_code": "44270",
  "capacity": "15",
  "bikes_available": "13",
  "bikes_unavailable": "0",
  "docks_available": "2",
  "docks_unavailable": "0"
 },
 {
  "zone": "Guadalajara",
  "station_id": "274",
  "name": "(GDL-201) Av. de los Normalistas / C. M. Guti",
  "latitude": "20.69442",
  "longitude": "-103.34474",
  "address": "(GDL-201) Av. de los Normalistas / C. M. Gutiérrez Nájera",
  "neighborhood": "Miraflores",
  "postal_code": "44270",
  "capacity": "15",
  "bikes_available": "11",
  "bikes_unavailable": "1",
  "docks_available": "3",
  "docks_unavailable": "0"
 },
 {
  "zone": "Guadalajara",
  "station_id": "275",
  "name": "(GDL-202) C. Magisterio / C. Durango",
  "latitude": "20.69898",
  "longitude": "-103.34893",
  "address": "(GDL-202) C. Magisterio / C. Durango",
  "neighborhood": "Observatorio",
  "postal_code": "44266",
  "capacity": "15",
  "bikes_available": "15",
  "bikes_unavailable": "0",
  "docks_available": "0",
  "docks_unavailable": "0"
 },
 {
  "zone": "Guadalajara",
  "station_id": "276",
  "name": "(GDL-203) Av. Federalismo / C. Tamaulipas",
  "latitude": "20.70046",
  "longitude": "-103.35478",
  "address": "(GDL-203) Av. Federalismo / C. Tamaulipas",
  "neighborhood": "El Retiro",
  "postal_code": "44280",
  "capacity": "23",
  "bikes_available": "23",
  "bikes_unavailable": "0",
  "docks_available": "0",
  "docks_unavailable": "0"
 },
 {
  "zone": "Guadalajara",
  "station_id": "277",
  "name": "(GDL-204) C. España/ Av. Chapultepec",
  "latitude": "20.6651",
  "longitude": "-103.36807",
  "address": "(GDL-204) C. España/ Av. Chapultepec",
  "neighborhood": "Moderna",
  "postal_code": "44190",
  "capacity": "23",
  "bikes_available": "0",
  "bikes_unavailable": "0",
  "docks_available": "23",
  "docks_unavailable": "0"
 },
 {
  "zone": "Guadalajara",
  "station_id": "278",
  "name": "(GDL-205) Av. Agustín Yáñez /C. Venezuela",
  "latitude": "20.66265",
  "longitude": "-103.36554",
  "address": "(GDL-205) Av. Agustín Yáñez /C. Venezuela*",
  "neighborhood": "Moderna",
  "postal_code": "44190",
  "capacity": "15",
  "bikes_available": "8",
  "bikes_unavailable": "0",
  "docks_available": "7",
  "docks_unavailable": "0"
 },
 {
  "zone": "Guadalajara",
  "station_id": "279",
  "name": "(GDL-206) C. Suiza / Av. Enrique Díaz de león",
  "latitude": "20.66231",
  "longitude": "-103.36011",
  "address": "(GDL-206) C. Suiza / Av. Enrique Díaz de león",
  "neighborhood": "Moderna",
  "postal_code": "44190",
  "capacity": "15",
  "bikes_available": "10",
  "bikes_unavailable": "0",
  "docks_available": "5",
  "docks_unavailable": "0"
 },
 {
  "zone": "Guadalajara",
  "station_id": "280",
  "name": "(GDL-207) C. Lázaro Pérez / C. Escorza",
  "latitude": "20.66563",
  "longitude": "-103.35802",
  "address": "(GDL-207) C. Lázaro Pérez / C. Escorza",
  "neighborhood": "Moderna",
  "postal_code": "44190",
  "capacity": "15",
  "bikes_available": "14",
  "bikes_unavailable": "0",
  "docks_available": "1",
  "docks_unavailable": "0"
 },
 {
  "zone": "Guadalajara",
  "station_id": "281",
  "name": "(GDL-208) Av. España / Av. Federalismo",
  "latitude": "20.66081",
  "longitude": "-103.35704",
  "address": "(GDL-208) Av. España / Av. Federalismo",
  "neighborhood": "Moderna",
  "postal_code": "44190",
  "capacity": "31",
  "bikes_available": "13",
  "bikes_unavailable": "3",
  "docks_available": "15",
  "docks_unavailable": "0"
 },
 {
  "zone": "Guadalajara",
  "station_id": "282",
  "name": "(GDL-209) Calz. del Campesino / Calz. Indepen",
  "latitude": "20.6605183",
  "longitude": "-103.3503245",
  "address": "(GDL-209) Calz. del Campesino / Calz. Independencia*",
  "neighborhood": "Moderna",
  "postal_code": "44190",
  "capacity": "19",
  "bikes_available": "11",
  "bikes_unavailable": "1",
  "docks_available": "7",
  "docks_unavailable": "0"
 },
 {
  "zone": "Guadalajara",
  "station_id": "283",
  "name": "(GDL-210) Av. Washington / Calz. Independenci",
  "latitude": "20.65775",
  "longitude": "-103.35132",
  "address": "(GDL-210) Av. Washington / Calz. Independencia*",
  "neighborhood": "Moderna",
  "postal_code": "44190",
  "capacity": "31",
  "bikes_available": "17",
  "bikes_unavailable": "2",
  "docks_available": "12",
  "docks_unavailable": "0"
 },
 {
  "zone": "Guadalajara",
  "station_id": "284",
  "name": "(GDL-211) Av. Washington / C. Rusia",
  "latitude": "20.65883",
  "longitude": "-103.35468",
  "address": "(GDL-211) Av. Washington / C. Rusia",
  "neighborhood": "Moderna",
  "postal_code": "44190",
  "capacity": "15",
  "bikes_available": "10",
  "bikes_unavailable": "1",
  "docks_available": "4",
  "docks_unavailable": "0"
 },
 {
  "zone": "Guadalajara",
  "station_id": "285",
  "name": "(GDL-212) C. Nicolás Romero / C. Jaime Nunó",
  "latitude": "20.70047",
  "longitude": "-103.36158",
  "address": "(GDL-212) C. Nicolás Romero / C. Jaime Nunó*",
  "neighborhood": "Lomas Del Country",
  "postal_code": "44610",
  "capacity": "15",
  "bikes_available": "7",
  "bikes_unavailable": "1",
  "docks_available": "7",
  "docks_unavailable": "0"
 },
 {
  "zone": "Zapopan",
  "station_id": "286",
  "name": "(ZPN-023) Blvrd. de la Espuela / C. Silvano B",
  "latitude": "20.73231",
  "longitude": "-103.38763",
  "address": "(ZPN-023) Blvrd. de la Espuela / C. Silvano Barba*",
  "neighborhood": "Zapopan Centro",
  "postal_code": "45100",
  "capacity": "15",
  "bikes_available": "13",
  "bikes_unavailable": "2",
  "docks_available": "0",
  "docks_unavailable": "0"
 },
 {
  "zone": "Zapopan",
  "station_id": "287",
  "name": "(ZPN-024) C. López Cotilla / C. del Estribo",
  "latitude": "20.73076",
  "longitude": "-103.38861",
  "address": "(ZPN-024) C. López Cotilla / C. del Estribo",
  "neighborhood": "Zapopan Centro",
  "postal_code": "45100",
  "capacity": "15",
  "bikes_available": "6",
  "bikes_unavailable": "0",
  "docks_available": "9",
  "docks_unavailable": "0"
 },
 {
  "zone": "Zapopan",
  "station_id": "288",
  "name": "(ZPN-048) Av. J. Parres Arias / Prol. López C",
  "latitude": "20.72958",
  "longitude": "-103.38859",
  "address": "(ZPN-048) Av. J. Parres Arias / Prol. López Cotilla*",
  "neighborhood": "Zapopan Centro",
  "postal_code": "45100",
  "capacity": "31",
  "bikes_available": "3",
  "bikes_unavailable": "0",
  "docks_available": "28",
  "docks_unavailable": "0"
 },
 {
  "zone": "Zapopan",
  "station_id": "289",
  "name": "(ZPN-049) Ávila Camacho/ Lábaro Patrio",
  "latitude": "20.7178",
  "longitude": "-103.38338",
  "address": "(ZPN-049) Ávila Camacho/ Lábaro Patrio",
  "neighborhood": "Tepeyac",
  "postal_code": "45150",
  "capacity": "15",
  "bikes_available": "13",
  "bikes_unavailable": "0",
  "docks_available": "2",
  "docks_unavailable": "0"
 },
 {
  "zone": "Zapopan",
  "station_id": "290",
  "name": "(ZPN-050) C. el Mediero / Prol. Laureles",
  "latitude": "20.73432",
  "longitude": "-103.38427",
  "address": "(ZPN-050) C. el Mediero / Prol. Laureles*",
  "neighborhood": "La Hoja Verde",
  "postal_code": "45150",
  "capacity": "15",
  "bikes_available": "8",
  "bikes_unavailable": "3",
  "docks_available": "4",
  "docks_unavailable": "1"
 },
 {
  "zone": "Zapopan",
  "station_id": "291",
  "name": "(ZPN-051) Av. Periférico G. Morín / Av. J. Pa",
  "latitude": "20.73837",
  "longitude": "-103.38057",
  "address": "(ZPN-051) Av. Periférico G. Morín / Av. J. Parres Arias",
  "neighborhood": "San Miguel de La Cañada",
  "postal_code": "45150",
  "capacity": "31",
  "bikes_available": "0",
  "bikes_unavailable": "0",
  "docks_available": "31",
  "docks_unavailable": "0"
 },
 {
  "zone": "Zapopan",
  "station_id": "292",
  "name": "(ZPN-052) C. del Pial / C. del Vigía",
  "latitude": "20.73245",
  "longitude": "-103.39291",
  "address": "(ZPN-052) C. del Pial / C. del Vigía*",
  "neighborhood": "El Vigía",
  "postal_code": "45140",
  "capacity": "15",
  "bikes_available": "0",
  "bikes_unavailable": "0",
  "docks_available": "15",
  "docks_unavailable": "0"
 },
 {
  "zone": "Zapopan",
  "station_id": "293",
  "name": "(ZPN-053) Prol. Laureles / Av. Periférico G.",
  "latitude": "20.73836",
  "longitude": "-103.38299",
  "address": "(ZPN-053) Prol. Laureles / Av. Periférico G. Morín*",
  "neighborhood": "El Capullo",
  "postal_code": "45150",
  "capacity": "31",
  "bikes_available": "24",
  "bikes_unavailable": "1",
  "docks_available": "6",
  "docks_unavailable": "0"
 },
 {
  "zone": "Zapopan",
  "station_id": "294",
  "name": "(ZPN-054) Av. J. Parres Arias / C. Ignacio Ja",
  "latitude": "20.73441",
  "longitude": "-103.38079",
  "address": "(ZPN-054) Av. J. Parres Arias / C. Ignacio Jacob*",
  "neighborhood": "Industrial los Belenes",
  "postal_code": "45157",
  "capacity": "31",
  "bikes_available": "29",
  "bikes_unavailable": "1",
  "docks_available": "1",
  "docks_unavailable": "0"
 },
 {
  "zone": "Zapopan",
  "station_id": "295",
  "name": "(ZPN-055) Prol. Laureles / Av. J. Parres Aria",
  "latitude": "20.73154",
  "longitude": "-103.38515",
  "address": "(ZPN-055) Prol. Laureles / Av. J. Parres Arias*",
  "neighborhood": "Belenes U de G",
  "postal_code": "45150",
  "capacity": "15",
  "bikes_available": "13",
  "bikes_unavailable": "0",
  "docks_available": "2",
  "docks_unavailable": "0"
 },
 {
  "zone": "Zapopan",
  "station_id": "296",
  "name": "(ZPN-056) Av. Manuel A. Camacho / C. San Jorg",
  "latitude": "20.71365",
  "longitude": "-103.37742",
  "address": "(ZPN-056) Av. Manuel A. Camacho / C. San Jorge",
  "neighborhood": "Villa San Jorge",
  "postal_code": "45160",
  "capacity": "15",
  "bikes_available": "13",
  "bikes_unavailable": "1",
  "docks_available": "1",
  "docks_unavailable": "0"
 },
 {
  "zone": "Zapopan",
  "station_id": "91",
  "name": "(ZPN-001) Emilio Carranza /Carretera Tesistán",
  "latitude": "20.73244",
  "longitude": "-103.396083",
  "address": "(ZPN-001) C. Emilio Carranza / Carretera Tesistán *",
  "neighborhood": "San Isidro Ejidal",
  "postal_code": "45147",
  "capacity": "15",
  "bikes_available": "4",
  "bikes_unavailable": "0",
  "docks_available": "11",
  "docks_unavailable": "0"
 },
 {
  "zone": "Zapopan",
  "station_id": "92",
  "name": "(ZPN-002) C. Emilio Carranza /C. Independenci",
  "latitude": "20.726376",
  "longitude": "-103.397466",
  "address": "(ZPN-002) C. Emilio Carranza /C. Independencia *",
  "neighborhood": "San Isidro Ejidal",
  "postal_code": "45147",
  "capacity": "11",
  "bikes_available": "6",
  "bikes_unavailable": "0",
  "docks_available": "5",
  "docks_unavailable": "0"
 },
 {
  "zone": "Zapopan",
  "station_id": "93",
  "name": "(ZPN-003) C. Emilio Carranza / Av. Hidalgo",
  "latitude": "20.723081",
  "longitude": "-103.398071",
  "address": "(ZPN-003) C. Emilio Carranza / Av. Hidalgo *",
  "neighborhood": "Unidad República",
  "postal_code": "45146",
  "capacity": "11",
  "bikes_available": "1",
  "bikes_unavailable": "0",
  "docks_available": "10",
  "docks_unavailable": "0"
 },
 {
  "zone": "Zapopan",
  "station_id": "95",
  "name": "(ZPN-005) C. Del Corral / C. Anáhuac",
  "latitude": "20.730841",
  "longitude": "-103.394267",
  "address": "(ZPN-005) C. Del Corral / C. Anáhuac *",
  "neighborhood": "Obrera Centro",
  "postal_code": "45140",
  "capacity": "11",
  "bikes_available": "4",
  "bikes_unavailable": "1",
  "docks_available": "6",
  "docks_unavailable": "0"
 },
 {
  "zone": "Zapopan",
  "station_id": "96",
  "name": "(ZPN-006) C. Independencia / C. Anáhuac",
  "latitude": "20.725815",
  "longitude": "-103.395308",
  "address": "(ZPN-006) C. Independencia / C. Anáhuac *",
  "neighborhood": "Guadalajara Centro",
  "postal_code": "45100",
  "capacity": "15",
  "bikes_available": "2",
  "bikes_unavailable": "0",
  "docks_available": "13",
  "docks_unavailable": "0"
 },
 {
  "zone": "Zapopan",
  "station_id": "98",
  "name": "(ZPN-008) C. Vicente Guerrero / Av. Hidalgo",
  "latitude": "20.72201",
  "longitude": "-103.39427",
  "address": "(ZPN-008) C. Vicente Guerrero / Av. Hidalgo *",
  "neighborhood": "Guadalajara Centro",
  "postal_code": "45100",
  "capacity": "19",
  "bikes_available": "2",
  "bikes_unavailable": "0",
  "docks_available": "17",
  "docks_unavailable": "0"
 },
 {
  "zone": "Zapopan",
  "station_id": "100",
  "name": "(ZPN-010) C. Ramón Corona / C. Cuauhtémoc",
  "latitude": "20.723889",
  "longitude": "-103.394585",
  "address": "(ZPN-010) C. Ramón Corona / C. Cuauhtémoc *",
  "neighborhood": "Guadalajara Centro",
  "postal_code": "45100",
  "capacity": "11",
  "bikes_available": "1",
  "bikes_unavailable": "0",
  "docks_available": "10",
  "docks_unavailable": "0"
 },
 {
  "zone": "Zapopan",
  "station_id": "101",
  "name": "(ZPN-011) C. Pino Suárez / C. López Cotilla",
  "latitude": "20.726558",
  "longitude": "-103.389242",
  "address": "(ZPN-011) C. Pino Suárez / C. López Cotilla *",
  "neighborhood": "Guadalajara Centro",
  "postal_code": "45100",
  "capacity": "11",
  "bikes_available": "1",
  "bikes_unavailable": "0",
  "docks_available": "10",
  "docks_unavailable": "0"
 },
 {
  "zone": "Zapopan",
  "station_id": "102",
  "name": "(ZPN-012) C. Pino Suárez / Av. Juan Pablo II",
  "latitude": "20.728446",
  "longitude": "-103.39031",
  "address": "(ZPN-012) C. Pino Suárez / Av. Juan Pablo II *",
  "neighborhood": "Guadalajara Centro",
  "postal_code": "45100",
  "capacity": "19",
  "bikes_available": "0",
  "bikes_unavailable": "0",
  "docks_available": "19",
  "docks_unavailable": "0"
 },
 {
  "zone": "Zapopan",
  "station_id": "103",
  "name": "(ZPN-013) C. Eva Briseño / C. Javier Mina",
  "latitude": "20.720438",
  "longitude": "-103.391894",
  "address": "(ZPN-013) C. Eva Briseño / C. Javier Mina*",
  "neighborhood": "Guadalajara Centro",
  "postal_code": "45100",
  "capacity": "15",
  "bikes_available": "0",
  "bikes_unavailable": "1",
  "docks_available": "14",
  "docks_unavailable": "0"
 },
 {
  "zone": "Zapopan",
  "station_id": "104",
  "name": "(ZPN-014) C. Juan Manuel / Pino Suárez",
  "latitude": "20.724044",
  "longitude": "-103.390802",
  "address": "(ZPN-014) C. Juan Manuel / C. Pino Suárez *",
  "neighborhood": "Guadalajara Centro",
  "postal_code": "45100",
  "capacity": "11",
  "bikes_available": "0",
  "bikes_unavailable": "0",
  "docks_available": "11",
  "docks_unavailable": "0"
 },
 {
  "zone": "Zapopan",
  "station_id": "105",
  "name": "(ZPN-015) C. Sarcófago / C. Panteon",
  "latitude": "20.725261",
  "longitude": "-103.387365",
  "address": "(ZPN-015) C. Sarcófago / C. Panteón *",
  "neighborhood": "Guadalajara Centro",
  "postal_code": "45100",
  "capacity": "11",
  "bikes_available": "0",
  "bikes_unavailable": "0",
  "docks_available": "11",
  "docks_unavailable": "0"
 },
 {
  "zone": "Zapopan",
  "station_id": "106",
  "name": "(ZPN-016) Av. Hidalgo/ C. Emiliano Zapata",
  "latitude": "20.721643",
  "longitude": "-103.3902",
  "address": "(ZPN-016) Av. Hidalgo / C. Emiliano Zapata*",
  "neighborhood": "Guadalajara Centro",
  "postal_code": "45100",
  "capacity": "19",
  "bikes_available": "0",
  "bikes_unavailable": "0",
  "docks_available": "19",
  "docks_unavailable": "0"
 },
 {
  "zone": "Zapopan",
  "station_id": "107",
  "name": "(ZPN-017) C. Juan Manuel / C. Pedro Moreno",
  "latitude": "20.72374",
  "longitude": "-103.388657",
  "address": "(ZPN-017) C. Juan Manuel / C. Pedro Moreno *",
  "neighborhood": "Guadalajara Centro",
  "postal_code": "45100",
  "capacity": "15",
  "bikes_available": "0",
  "bikes_unavailable": "0",
  "docks_available": "15",
  "docks_unavailable": "0"
 },
 {
  "zone": "Zapopan",
  "station_id": "108",
  "name": "(ZPN-018) Av. Juan Pablo II / C. Santa Lucía",
  "latitude": "20.727068",
  "longitude": "-103.386286",
  "address": "(ZPN-018) Av. Juan Pablo II / C. Santa Lucía *",
  "neighborhood": "Seattle",
  "postal_code": "45150",
  "capacity": "15",
  "bikes_available": "4",
  "bikes_unavailable": "0",
  "docks_available": "11",
  "docks_unavailable": "0"
 },
 {
  "zone": "Zapopan",
  "station_id": "110",
  "name": "(ZPN-020) Av. Aurelio Ortega / Av. Laureles",
  "latitude": "20.721039",
  "longitude": "-103.386942",
  "address": "(ZPN-020) Av. Aurelio Ortega / Av. Laureles *",
  "neighborhood": "Seattle",
  "postal_code": "45150",
  "capacity": "15",
  "bikes_available": "0",
  "bikes_unavailable": "0",
  "docks_available": "15",
  "docks_unavailable": "0"
 },
 {
  "zone": "Zapopan",
  "station_id": "111",
  "name": "(ZPN-021) Blvrd. Panamericano/ C.Santa Mónica",
  "latitude": "20.72832",
  "longitude": "-103.384156",
  "address": "(ZPN-021) Blvr. Panamericano / C. Santa Mónica *",
  "neighborhood": "Seattle",
  "postal_code": "45150",
  "capacity": "15",
  "bikes_available": "5",
  "bikes_unavailable": "0",
  "docks_available": "10",
  "docks_unavailable": "0"
 },
 {
  "zone": "Zapopan",
  "station_id": "112",
  "name": "(ZPN-022) Av. Aurelio Ortega / C. Morelos*",
  "latitude": "20.722427",
  "longitude": "-103.383",
  "address": "(ZPN-022) Av. Aurelio Ortega / C. Morelos*",
  "neighborhood": "Seattle",
  "postal_code": "45150",
  "capacity": "15",
  "bikes_available": "12",
  "bikes_unavailable": "0",
  "docks_available": "3",
  "docks_unavailable": "0"
 },
 {
  "zone": "Zapopan",
  "station_id": "115",
  "name": "(ZPN-025) C. Pedro Moreno / C. Jesus García",
  "latitude": "20.727913",
  "longitude": "-103.388162",
  "address": "(ZPN-025) C. Pedro Moreno / C. Jesús García *",
  "neighborhood": "Guadalajara Centro",
  "postal_code": "45100",
  "capacity": "15",
  "bikes_available": "3",
  "bikes_unavailable": "0",
  "docks_available": "12",
  "docks_unavailable": "0"
 },
 {
  "zone": "Zapopan",
  "station_id": "117",
  "name": "(ZPN-027) C. 5 de Mayo / C. Noviembre",
  "latitude": "20.720452",
  "longitude": "-103.388629",
  "address": "(ZPN-027) C. 5 de Mayo / C. Noviembre *",
  "neighborhood": "Guadalajara Centro",
  "postal_code": "45100",
  "capacity": "11",
  "bikes_available": "0",
  "bikes_unavailable": "0",
  "docks_available": "11",
  "docks_unavailable": "0"
 },
 {
  "zone": "Zapopan",
  "station_id": "118",
  "name": "(ZPN-028) C. Ejido / C. Sabino Delgado",
  "latitude": "20.729724",
  "longitude": "-103.398598",
  "address": "(ZPN-028) C. Ejido / C. Sabino Delgado *",
  "neighborhood": "San Isidro Ejidal",
  "postal_code": "45147",
  "capacity": "11",
  "bikes_available": "3",
  "bikes_unavailable": "0",
  "docks_available": "8",
  "docks_unavailable": "0"
 },
 {
  "zone": "Zapopan",
  "station_id": "119",
  "name": "(ZPN-029) C. La Villa / C. Cuauhtémoc",
  "latitude": "20.728147",
  "longitude": "-103.393858",
  "address": "(ZPN-029) C. La Villa / C. Cuauhtémoc *",
  "neighborhood": "San Isidro Ejidal",
  "postal_code": "45147",
  "capacity": "15",
  "bikes_available": "8",
  "bikes_unavailable": "0",
  "docks_available": "7",
  "docks_unavailable": "0"
 },
 {
  "zone": "Zapopan",
  "station_id": "120",
  "name": "(ZPN-030) C. Francisco Sarabia / C. Libertad",
  "latitude": "20.727381",
  "longitude": "-103.399976",
  "address": "(ZPN-030) C. Francisco Sarabia / C. Libertad *",
  "neighborhood": "San Isidro Ejidal",
  "postal_code": "45147",
  "capacity": "15",
  "bikes_available": "3",
  "bikes_unavailable": "0",
  "docks_available": "12",
  "docks_unavailable": "0"
 },
 {
  "zone": "Zapopan",
  "station_id": "125",
  "name": "(ZPN-031) C. Niño Obrero/Calz Lázaro Cárdenas",
  "latitude": "20.67342",
  "longitude": "-103.40945",
  "address": "(ZPN-031) C. Niño Obrero / Calz. Lázaro Cárdenas",
  "neighborhood": "Don Bosco Vallarta",
  "postal_code": "45049",
  "capacity": "19",
  "bikes_available": "5",
  "bikes_unavailable": "1",
  "docks_available": "13",
  "docks_unavailable": "0"
 },
 {
  "zone": "Zapopan",
  "station_id": "126",
  "name": "(ZPN-032) Calz Lázaro Cárdenas / Av San Fco",
  "latitude": "20.67195",
  "longitude": "-103.40641",
  "address": "(ZPN-032) Calz. Lázaro Cárdenas / Av. San Francisco",
  "neighborhood": "Don Bosco Vallarta",
  "postal_code": "45049",
  "capacity": "19",
  "bikes_available": "0",
  "bikes_unavailable": "1",
  "docks_available": "18",
  "docks_unavailable": "0"
 },
 {
  "zone": "Zapopan",
  "station_id": "127",
  "name": "(ZPN-033) Av Lázaro Cárdenas / Av San Ignacio",
  "latitude": "20.6707",
  "longitude": "-103.40458",
  "address": "(ZPN-033) Av. Lázaro Cárdenas / Av. San Ignacio *",
  "neighborhood": "Jardines del Bosque",
  "postal_code": "45040",
  "capacity": "15",
  "bikes_available": "0",
  "bikes_unavailable": "0",
  "docks_available": "15",
  "docks_unavailable": "0"
 },
 {
  "zone": "Zapopan",
  "station_id": "128",
  "name": "(ZPN-034) C. San Demetrio / C. Niño Obrero",
  "latitude": "20.66984",
  "longitude": "-103.40968",
  "address": "(ZPN-034) C. San Demetrio / C. Niño Obrero",
  "neighborhood": "Jardines del Bosque",
  "postal_code": "45040",
  "capacity": "15",
  "bikes_available": "5",
  "bikes_unavailable": "0",
  "docks_available": "10",
  "docks_unavailable": "0"
 },
 {
  "zone": "Zapopan",
  "station_id": "129",
  "name": "(ZPN-035) C. San Juan Bosco / Av. San Ignacio",
  "latitude": "20.66844",
  "longitude": "-103.40495",
  "address": "(ZPN-035) C. San Juan Bosco / Av. San Ignacio*",
  "neighborhood": "Jardines del Bosque",
  "postal_code": "45040",
  "capacity": "11",
  "bikes_available": "2",
  "bikes_unavailable": "0",
  "docks_available": "9",
  "docks_unavailable": "0"
 },
 {
  "zone": "Zapopan",
  "station_id": "130",
  "name": "(ZPN-036) C. Niño Obrero /C José María Robles",
  "latitude": "20.66731",
  "longitude": "-103.40953",
  "address": "(ZPN-036) C. Niño Obrero / C. José María Robles",
  "neighborhood": "Chapalita Oriente",
  "postal_code": "45040",
  "capacity": "19",
  "bikes_available": "1",
  "bikes_unavailable": "0",
  "docks_available": "18",
  "docks_unavailable": "0"
 },
 {
  "zone": "Zapopan",
  "station_id": "131",
  "name": "(ZPN-037) Av. San Ignacio / Av. Guadalupe",
  "latitude": "20.6668782",
  "longitude": "-103.4031329",
  "address": "(ZPN-037) Av. San Ignacio / Av. Guadalupe",
  "neighborhood": "Chapalita Oriente",
  "postal_code": "45040",
  "capacity": "11",
  "bikes_available": "5",
  "bikes_unavailable": "0",
  "docks_available": "6",
  "docks_unavailable": "0"
 },
 {
  "zone": "Zapopan",
  "station_id": "132",
  "name": "(ZPN-038) C. Santa Rita / Av. Guadalupe",
  "latitude": "20.66581",
  "longitude": "-103.40662",
  "address": "(ZPN-038) C. Santa Rita / Av. Guadalupe *",
  "neighborhood": "Chapalita Oriente",
  "postal_code": "45040",
  "capacity": "11",
  "bikes_available": "0",
  "bikes_unavailable": "0",
  "docks_available": "11",
  "docks_unavailable": "0"
 },
 {
  "zone": "Zapopan",
  "station_id": "133",
  "name": "(ZPN-039) Av. Niño Obrero / C. Juan Diego",
  "latitude": "20.66312806",
  "longitude": "-103.4079076",
  "address": "(ZPN-039) Av. Niño Obrero / C. Juan Diego",
  "neighborhood": "Chapalita Oriente",
  "postal_code": "45040",
  "capacity": "19",
  "bikes_available": "7",
  "bikes_unavailable": "1",
  "docks_available": "11",
  "docks_unavailable": "0"
 },
 {
  "zone": "Zapopan",
  "station_id": "134",
  "name": "(ZPN-040) C. Santa María / C. Árbol",
  "latitude": "20.66033761",
  "longitude": "-103.4037559",
  "address": "(ZPN-040) C. Santa María / C. Árbol *",
  "neighborhood": "Chapalita Sur",
  "postal_code": "45046",
  "capacity": "15",
  "bikes_available": "0",
  "bikes_unavailable": "0",
  "docks_available": "15",
  "docks_unavailable": "0"
 },
 {
  "zone": "Zapopan",
  "station_id": "135",
  "name": "(ZPN-041) C. 12 de Diciembre / C. Juan Diego",
  "latitude": "20.66463",
  "longitude": "-103.404",
  "address": "(ZPN-041) C. 12 de Diciembre / C. Juan Diego",
  "neighborhood": "Chapalita Oriente",
  "postal_code": "45040",
  "capacity": "11",
  "bikes_available": "2",
  "bikes_unavailable": "0",
  "docks_available": "9",
  "docks_unavailable": "0"
 },
 {
  "zone": "Zapopan",
  "station_id": "136",
  "name": "(ZPN-042) C. Tonatiuh / Av. Netzahualcóyotl",
  "latitude": "20.65925105",
  "longitude": "-103.4065612",
  "address": "(ZPN-042) C. Tonatiuh / Av. Netzahualcóyotl",
  "neighborhood": "Ciudad Del Sol",
  "postal_code": "45050",
  "capacity": "15",
  "bikes_available": "6",
  "bikes_unavailable": "0",
  "docks_available": "9",
  "docks_unavailable": "0"
 },
 {
  "zone": "Zapopan",
  "station_id": "137",
  "name": "(ZPN-043) C. Ermita / C. Del Árbol",
  "latitude": "20.65938",
  "longitude": "-103.40195",
  "address": "(ZPN-043) C. Ermita / C. Del Árbol",
  "neighborhood": "Chapalita Sur",
  "postal_code": "45046",
  "capacity": "11",
  "bikes_available": "0",
  "bikes_unavailable": "0",
  "docks_available": "11",
  "docks_unavailable": "0"
 },
 {
  "zone": "Zapopan",
  "station_id": "139",
  "name": "(ZPN-045) Av. Tizoc / C. Iztaccíhuatl",
  "latitude": "20.65701",
  "longitude": "-103.40464",
  "address": "(ZPN-045) Av. Tizoc / C. Iztaccíhuatl",
  "neighborhood": "Ciudad Del Sol",
  "postal_code": "45050",
  "capacity": "15",
  "bikes_available": "12",
  "bikes_unavailable": "0",
  "docks_available": "3",
  "docks_unavailable": "0"
 },
 {
  "zone": "Zapopan",
  "station_id": "140",
  "name": "(ZPN-046) Av. Cubilete / Av. López Mateos",
  "latitude": "20.656866",
  "longitude": "-103.397725",
  "address": "(ZPN-046) Av. Cubilete / Av. López Mateos",
  "neighborhood": "Jardines de Plaza Del Sol",
  "postal_code": "44510",
  "capacity": "19",
  "bikes_available": "0",
  "bikes_unavailable": "0",
  "docks_available": "19",
  "docks_unavailable": "0"
 },
 {
  "zone": "Zapopan",
  "station_id": "141",
  "name": "(ZPN-047) Av. Tizoc / Av. López Mateos",
  "latitude": "20.65381",
  "longitude": "-103.40134",
  "address": "(ZPN-047) Av. Tizoc / Av. López Mateos",
  "neighborhood": "Ciudad Del Sol",
  "postal_code": "45050",
  "capacity": "15",
  "bikes_available": "15",
  "bikes_unavailable": "0",
  "docks_available": "0",
  "docks_unavailable": "0"
 },
 {
  "zone": "Tlaquepaque",
  "station_id": "142",
  "name": "(TLQ-001) BlvrdGarcía Barragán/C. Río Tajo",
  "latitude": "20.64483",
  "longitude": "-103.31948",
  "address": "(TLQ-001) Blvr. García Barragán / C. Río Tajo*",
  "neighborhood": "Lomas Del Paradero",
  "postal_code": "44840",
  "capacity": "19",
  "bikes_available": "19",
  "bikes_unavailable": "0",
  "docks_available": "0",
  "docks_unavailable": "0"
 },
 {
  "zone": "Tlaquepaque",
  "station_id": "143",
  "name": "(TLQ-002) C. Juárez / Av. Niños Héroes",
  "latitude": "20.6383352",
  "longitude": "-103.3163317",
  "address": "(TLQ-002) C. Juárez / Av. Niños Héroes",
  "neighborhood": "Tlaquepaque Centro",
  "postal_code": "45500",
  "capacity": "15",
  "bikes_available": "3",
  "bikes_unavailable": "0",
  "docks_available": "12",
  "docks_unavailable": "0"
 },
 {
  "zone": "Tlaquepaque",
  "station_id": "144",
  "name": "(TLQ-003) C. Contreras Medellín/Donato Guerra",
  "latitude": "20.64193",
  "longitude": "-103.31366",
  "address": "(TLQ-003) C. Contreras Medellín / C. Donato Guerra *",
  "neighborhood": "Tlaquepaque Centro",
  "postal_code": "45500",
  "capacity": "15",
  "bikes_available": "1",
  "bikes_unavailable": "1",
  "docks_available": "13",
  "docks_unavailable": "0"
 },
 {
  "zone": "Tlaquepaque",
  "station_id": "145",
  "name": "(TLQ-004) C. Donato Guerra / C. Obregón",
  "latitude": "20.64185",
  "longitude": "-103.3106",
  "address": "(TLQ-004) C. Donato Guerra / C. Obregón*",
  "neighborhood": "Tlaquepaque Centro",
  "postal_code": "45500",
  "capacity": "15",
  "bikes_available": "7",
  "bikes_unavailable": "0",
  "docks_available": "8",
  "docks_unavailable": "0"
 },
 {
  "zone": "Tlaquepaque",
  "station_id": "146",
  "name": "(TLQ-005) C. Zalatitán / C. Jalisco",
  "latitude": "20.64188",
  "longitude": "-103.30651",
  "address": "(TLQ-005) C. Zalatitán / C. Jalisco *",
  "neighborhood": "Tlaquepaque Centro",
  "postal_code": "45500",
  "capacity": "15",
  "bikes_available": "5",
  "bikes_unavailable": "0",
  "docks_available": "10",
  "docks_unavailable": "0"
 },
 {
  "zone": "Tlaquepaque",
  "station_id": "148",
  "name": "(TLQ-007) Blvrd.García Barragán/Donato Guerra",
  "latitude": "20.64176",
  "longitude": "-103.31716",
  "address": "(TLQ-007) Blvr. García Barragán / C. Donato Guerra",
  "neighborhood": "Tlaquepaque Centro",
  "postal_code": "45500",
  "capacity": "15",
  "bikes_available": "3",
  "bikes_unavailable": "0",
  "docks_available": "12",
  "docks_unavailable": "0"
 },
 {
  "zone": "Tlaquepaque",
  "station_id": "149",
  "name": "(TLQ-008) C. Juárez / C. Francisco de Miranda",
  "latitude": "20.63841",
  "longitude": "-103.31334",
  "address": "(TLQ-008) C. Juárez / C. Francisco de Miranda",
  "neighborhood": "Tlaquepaque Centro",
  "postal_code": "45500",
  "capacity": "15",
  "bikes_available": "3",
  "bikes_unavailable": "0",
  "docks_available": "12",
  "docks_unavailable": "0"
 },
 {
  "zone": "Tlaquepaque",
  "station_id": "150",
  "name": "(TLQ-009) C. Progreso / C. Juárez",
  "latitude": "20.63816",
  "longitude": "-103.31148",
  "address": "(TLQ-009) C. Progreso / C. Juárez",
  "neighborhood": "Tlaquepaque Centro",
  "postal_code": "45500",
  "capacity": "15",
  "bikes_available": "5",
  "bikes_unavailable": "0",
  "docks_available": "10",
  "docks_unavailable": "0"
 },
 {
  "zone": "Tlaquepaque",
  "station_id": "151",
  "name": "(TLQ-010) C. Zaragoza / C. Emilio Carranza",
  "latitude": "20.63834",
  "longitude": "-103.30952",
  "address": "(TLQ-010) C. Zaragoza / C. Emilio Carranza *",
  "neighborhood": "Tlaquepaque Centro",
  "postal_code": "45500",
  "capacity": "15",
  "bikes_available": "3",
  "bikes_unavailable": "0",
  "docks_available": "12",
  "docks_unavailable": "0"
 },
 {
  "zone": "Tlaquepaque",
  "station_id": "152",
  "name": "(TLQ-011) C. Jalisco / C. Hidalgo",
  "latitude": "20.63922",
  "longitude": "-103.30465",
  "address": "(TLQ-011) C. Jalisco / C. Hidalgo*",
  "neighborhood": "Tlaquepaque Centro",
  "postal_code": "45500",
  "capacity": "15",
  "bikes_available": "9",
  "bikes_unavailable": "3",
  "docks_available": "3",
  "docks_unavailable": "0"
 },
 {
  "zone": "Tlaquepaque",
  "station_id": "153",
  "name": "(TLQ-012) C. Paseo Don Bosco / C. Tonalá",
  "latitude": "20.63613",
  "longitude": "-103.3019",
  "address": "(TLQ-012) C. Paseo Don Bosco / C. Tonalá *",
  "neighborhood": "Tlaquepaque Centro",
  "postal_code": "45500",
  "capacity": "15",
  "bikes_available": "9",
  "bikes_unavailable": "0",
  "docks_available": "6",
  "docks_unavailable": "0"
 },
 {
  "zone": "Tlaquepaque",
  "station_id": "251",
  "name": "(TLQ-006) C. Miguel Hidalgo / Calz. Revolució",
  "latitude": "20.639042",
  "longitude": "-103.301239",
  "address": "(TLQ-006) C. Miguel Hidalgo / Av. Francisco Silva Romero",
  "neighborhood": "Tlaquepaque Pueblito",
  "postal_code": "45500",
  "capacity": "15",
  "bikes_available": "13",
  "bikes_unavailable": "0",
  "docks_available": "2",
  "docks_unavailable": "0"
 }]